2016/01/01 00:00:00.002,iGPS,$GPGGA,145959.00,3400.943,N,13147.378,E,1,08,01.0,+0023,M,+029,M,,*5F
2016/01/01 00:00:00.002,iAIS,$PJRC,33,11,1512311500*26
2016/01/01 00:00:00.143,iAIS,!AIVDM,1,1,,A,40476d1uw?g00aGNVPCL4e700D4H,0*27
2016/01/01 00:00:00.159,iGPS,$GPRMC,145959.00,A,3400.943,N,13147.378,E,00.0,275.,311215,07.,W,A*25
2016/01/01 00:00:00.268,iGPS,$GPGLL,3400.943,N,13147.378,E,145959.00,A,A*69
2016/01/01 00:00:00.362,iGPS,$GPVTG,275,T,282,M,00.0,N,00.0,K,A*2B
2016/01/01 00:00:00.393,iAIS,!AIVDM,1,1,,A,16KVqgh001aKW1`CM1A8fq02280=,0*0B
2016/01/01 00:00:00.424,iGPS,$GPAPB,A,A,,,,,,,,,,,,,A*29
2016/01/01 00:00:00.455,iWIND,$WIMWV,343,R,002.8,M,A*30
2016/01/01 00:00:00.487,iGPS,$GPDTM,W84,,,,,,,W84*4A
2016/01/01 00:00:00.502,iWIND,$WIMWV,348,T,002.7,M,A*32
2016/01/01 00:00:00.518,iGPS,$GPXTE,A,A,,,,A*1F
2016/01/01 00:00:00.565,iAIS,!AIVDM,1,1,,A,D0476d02<R2lfpFfp?aC6D?aC6D,2*75
2016/01/01 00:00:00.612,iGPS,$GPZDA,145959.00,31,12,2015,-09,00*40
2016/01/01 00:00:00.612,iLOG,$VDVBW,-000.01,,A,000.00,000.00,A,,V,00.00,V*4D
2016/01/01 00:00:00.674,iLOG,$VDVLW,84814.02,N,5.23,N*58
2016/01/01 00:00:00.705,iAIS,!AIVDO,1,1,,,16K2EhQ000aKB=@CMdT<nh:005p0,0*09
2016/01/01 00:00:00.705,tAIS,$GPGGA,,3400.949,N,13147.370,E,,,,,,,,,*6A
2016/01/01 00:00:00.705,tAIS,$GPVTG,329.1,T,,,00.0,N,00.0,K*24
2016/01/01 00:00:00.705,tAIS,$HEHDT,005,T*34
2016/01/01 00:00:00.705,tAIS,$GPROT,000.0,A*31
2016/01/01 00:00:00.924,iAIS,!AIVDM,1,1,,A,16Lb2<0000aJH7HCNND174P20@0Q,0*5B
2016/01/01 00:00:01.018,iAIS,!AIVDM,1,1,,B,16UQJd801gaJvgfCCi3LUb4005p0,0*6A
2016/01/01 00:00:01.190,iAIS,!AIVDM,1,1,,A,14S@sR0029aK4@0CD=n3tC:220Rm,0*11
2016/01/01 00:00:01.205,iAIS,!AIVDM,1,1,,B,16K2FR00009KCv@CNuARqir20@0d,0*5F
2016/01/01 00:00:01.455,iWIND,$WIMWV,343,R,002.8,M,A*30
2016/01/01 00:00:01.502,iWIND,$WIMWV,349,T,002.8,M,A*3C
2016/01/01 00:00:01.690,iAIS,!AIVDM,1,1,,B,36K2;Ni000aKEgRCN7n9`bl2P000,0*7E
2016/01/01 00:00:01.768,iLOG,$VDVBW,-000.02,,A,000.00,000.00,A,,V,00.00,V*4E
2016/01/01 00:00:01.815,iGPS,$GPRMB,A,,,,,,,,,,,,,A*4A
2016/01/01 00:00:01.815,iAIS,!AIVDO,1,1,,,16K2EhQ000aKB=>CMdT<UP:205p0,0*76
2016/01/01 00:00:01.815,tAIS,$GPGGA,,3400.949,N,13147.370,E,,,,,,,,,*6A
2016/01/01 00:00:01.815,tAIS,$GPVTG,322.2,T,,,00.0,N,00.0,K*2C
2016/01/01 00:00:01.815,tAIS,$HEHDT,005,T*34
2016/01/01 00:00:01.815,tAIS,$GPROT,000.0,A*31
2016/01/01 00:00:01.830,iLOG,$VDVLW,84814.02,N,5.23,N*58
2016/01/01 00:00:01.971,iGPS,$GPGGA,150001.00,3400.943,N,13147.378,E,1,08,01.0,+0023,M,+029,M,,*5F
2016/01/01 00:00:02.143,iGPS,$GPRMC,150001.00,A,3400.943,N,13147.378,E,00.0,275.,311215,07.,W,A*25
2016/01/01 00:00:02.284,iGPS,$PJRCD,GP,7,311215,1500,A,A,A,A,12,0,10,0,,,8,1,320.0,1,114,*4F
2016/01/01 00:00:02.346,iGPS,$PJRCD,GP,9,A,A,,,,,,,*4D
2016/01/01 00:00:02.455,iWIND,$WIMWV,349,R,002.8,M,A*3A
2016/01/01 00:00:02.502,iWIND,$WIMWV,355,T,002.8,M,A*31
2016/01/01 00:00:02.518,iAIS,!AIVDM,1,1,,A,16K2=7O0009KEqNCN`SbQnV62L1V,0*3F
2016/01/01 00:00:02.659,iAIS,!AIVDM,1,1,,A,16KJUFP01saJJc@CCJCi;0p625p0,0*39
2016/01/01 00:00:02.674,iLOG,$VDVBW,-000.02,,A,000.00,000.00,A,,V,00.00,V*4E
2016/01/01 00:00:02.737,iLOG,$VDVLW,84814.02,N,5.23,N*58
2016/01/01 00:00:02.924,iAIS,!AIVDO,1,1,,,16K2EhQ000aKB=<CMdT<S@:405p0,0*64
2016/01/01 00:00:02.924,tAIS,$GPGGA,,3400.949,N,13147.370,E,,,,,,,,,*6A
2016/01/01 00:00:02.924,tAIS,$GPVTG,321.3,T,,,00.0,N,00.0,K*2E
2016/01/01 00:00:02.924,tAIS,$HEHDT,005,T*34
2016/01/01 00:00:02.924,tAIS,$GPROT,000.0,A*31
2016/01/01 00:00:02.940,iAIS,!AIVDM,1,1,,A,16UJll0022aJMlpCDpaSkS3l0D<M,0*63
2016/01/01 00:00:03.190,iAIS,!AIVDM,1,1,,A,15CnO@0022aJemtCDDd41S@60H1n,0*77
2016/01/01 00:00:03.268,iAIS,!AIVDM,1,1,,B,A0476d1<fpWkh2Jv0?@`6wu02U4OwQ<:4AGvB0HG,0*6A
2016/01/01 00:00:03.377,iAIS,!AIVDM,1,1,,B,D0476d02PR2lfpFfp:EC6D:EC6D,2*1A
2016/01/01 00:00:03.455,iWIND,$WIMWV,353,R,002.9,M,A*30
2016/01/01 00:00:03.502,iWIND,$WIMWV,357,T,002.9,M,A*32
2016/01/01 00:00:03.580,iAIS,!AIVDM,1,1,,B,16K2PMh027aL6G@CCukkKBh005p0,0*66
2016/01/01 00:00:03.627,iLOG,$VDVBW,-000.02,,A,000.00,000.00,A,,V,00.00,V*4E
2016/01/01 00:00:03.690,iLOG,$VDVLW,84814.02,N,5.23,N*58
2016/01/01 00:00:03.799,iGPS,$GPRMB,A,,,,,,,,,,,,,A*4A
2016/01/01 00:00:03.955,iGPS,$GPGGA,150003.00,3400.943,N,13147.378,E,1,08,01.0,+0023,M,+029,M,,*5D
2016/01/01 00:00:04.034,iAIS,!AIVDO,1,1,,,16K2EhQ000aKB=:CMdT<NP:605p0,0*6D
2016/01/01 00:00:04.034,tAIS,$GPGGA,,3400.949,N,13147.370,E,,,,,,,,,*6A
2016/01/01 00:00:04.034,tAIS,$GPVTG,319.4,T,,,00.0,N,00.0,K*22
2016/01/01 00:00:04.034,tAIS,$HEHDT,005,T*34
2016/01/01 00:00:04.034,tAIS,$GPROT,000.0,A*31
2016/01/01 00:00:04.049,iAIS,!AIVDM,1,1,,A,16KJdE00009K@1nCO=F:fEh8082F,0*2E
2016/01/01 00:00:04.112,iAIS,!AIVDM,1,1,,A,16KJTIh01qaKg6PCHIrd69j:0D1m,0*2D
2016/01/01 00:00:04.127,iGPS,$GPRMC,150003.00,A,3400.943,N,13147.378,E,00.0,275.,311215,07.,W,A*27
2016/01/01 00:00:04.143,iAIS,!AIVDM,1,1,,B,B6K2C2000JFm4q4o`ogMSwQUkP06,0*2E
2016/01/01 00:00:04.237,iGPS,$GPGLL,3400.943,N,13147.378,E,150003.00,A,A*6B
2016/01/01 00:00:04.315,iGPS,$GPVTG,275,T,282,M,00.0,N,00.0,K,A*2B
2016/01/01 00:00:04.393,iGPS,$GPAPB,A,A,,,,,,,,,,,,,A*29
2016/01/01 00:00:04.440,iGPS,$GPDTM,W84,,,,,,,W84*4A
2016/01/01 00:00:04.455,iWIND,$WIMWV,350,R,002.8,M,A*32
2016/01/01 00:00:04.471,iAIS,!AIVDM,1,1,,B,A0476d1<fpWkh2Jv0@DP4?tG2hPJwgd<>@1@,0*1F
2016/01/01 00:00:04.487,iGPS,$GPXTE,A,A,,,,A*1F
2016/01/01 00:00:04.502,iWIND,$WIMWV,355,T,002.8,M,A*31
2016/01/01 00:00:04.518,iAIS,!AIVDM,1,1,,B,36K2L`S001aKs5FCKW@qT6d60111,0*62
2016/01/01 00:00:04.580,iGPS,$GPZDA,150003.00,31,12,2015,-09,00*42
2016/01/01 00:00:04.612,iLOG,$VDVBW,-000.02,,A,000.00,000.00,A,,V,00.00,V*4E
2016/01/01 00:00:04.659,iLOG,$VDVLW,84814.02,N,5.23,N*58
2016/01/01 00:00:04.737,iAIS,!AIVDM,1,1,,B,16K2M@P02?aK6mdCDdgc0pl:2D1l,0*74
2016/01/01 00:00:04.862,iAIS,!AIVDM,1,1,,B,16K2SS@000aKCnlCNtqt1Ap:00Sh,0*3D
2016/01/01 00:00:04.987,iAIS,!AIVDM,2,1,7,B,56K2Eh02?nMd`C?;S:1=DpqV0hDv22222222221@;0F=4;=C,0*77
2016/01/01 00:00:05.002,iAIS,!AIVDM,2,2,7,B,0=O`2T856183iQ`88888880,2*05
2016/01/01 00:00:05.143,iAIS,!AIVDO,1,1,,,16K2EhQ000aKB=4CMdSt;h::05p0,0*6D
2016/01/01 00:00:05.190,iAIS,!AIVDM,1,1,,B,16KPckh01iaHFc6CI`5TnCl:2@31,0*0B
2016/01/01 00:00:05.237,iAIS,!AIVDM,1,1,,A,15E8hp001m9J3BbCF6gJrpd<0<18,0*3A
2016/01/01 00:00:05.237,tAIS,$GPGGA,,3400.949,N,13147.370,E,,,,,,,,,*6A
2016/01/01 00:00:05.237,tAIS,$GPVTG,311.9,T,,,00.0,N,00.0,K*27
2016/01/01 00:00:05.237,tAIS,$HEHDT,005,T*34
2016/01/01 00:00:05.237,tAIS,$GPROT,000.0,A*31
2016/01/01 00:00:05.362,iAIS,!AIVDM,2,1,8,A,56KJV9h00000`gG?7R0pw61@teET4l6222222216:`I>37?d,0*6B
2016/01/01 00:00:05.362,iAIS,!AIVDM,2,2,8,A,0=wRT8561;iH88888888880,2*40
2016/01/01 00:00:05.377,iAIS,!AIVDM,1,1,,B,16KDR0@000aK>mPCNP;:I0<80838,0*34
2016/01/01 00:00:05.393,iAIS,!AIVDM,1,1,,A,16KPhch01iaK49jCIt;bA8@<2839,0*5E
2016/01/01 00:00:05.455,iAIS,!AIVDM,1,1,,B,16KJd00001aKUurCM=8d8VJ:0D1W,0*6D
2016/01/01 00:00:05.455,iWIND,$WIMWV,347,R,002.8,M,A*34
2016/01/01 00:00:05.502,iWIND,$WIMWV,353,T,002.8,M,A*37
2016/01/01 00:00:05.612,iLOG,$VDVBW,-000.02,,A,000.00,000.00,A,,V,00.00,V*4E
2016/01/01 00:00:05.674,iLOG,$VDVLW,84814.02,N,5.23,N*58
2016/01/01 00:00:05.768,iAIS,!AIVDM,1,1,,A,16KjvpP02>9KDb`CD=b;3`j6083G,0*4E
2016/01/01 00:00:05.784,iGPS,$GPRMB,A,,,,,,,,,,,,,A*4A
2016/01/01 00:00:05.940,iGPS,$GPGGA,150005.00,3400.943,N,13147.378,E,1,08,01.0,+0023,M,+029,M,,*5B
2016/01/01 00:00:06.096,iGPS,$GPRMC,150005.00,A,3400.943,N,13147.378,E,00.0,275.,311215,07.,W,A*21
2016/01/01 00:00:06.252,iAIS,!AIVDO,1,1,,,16K2EhQ000aKB=8CMdT<00:<05p0,0*7B
2016/01/01 00:00:06.252,iGPS,$PJRCD,GP,7,311215,1500,A,A,A,A,12,0,10,0,,,8,1,320.0,1,115,*4E
2016/01/01 00:00:06.315,iGPS,$PJRCD,GP,9,A,A,,,,,,,*4D
2016/01/01 00:00:06.346,tAIS,$GPGGA,,3400.949,N,13147.370,E,,,,,,,,,*6A
2016/01/01 00:00:06.346,tAIS,$GPVTG,307.2,T,,,00.0,N,00.0,K*2B
2016/01/01 00:00:06.346,tAIS,$HEHDT,005,T*34
2016/01/01 00:00:06.346,tAIS,$GPROT,000.0,A*31
2016/01/01 00:00:06.393,iAIS,!AIVDM,1,1,,A,16KJVG@P009KCSRCNsEKaOv<083f,0*58
2016/01/01 00:00:06.455,iWIND,$WIMWV,345,R,003.0,M,A*3F
2016/01/01 00:00:06.502,iWIND,$WIMWV,350,T,002.9,M,A*35
2016/01/01 00:00:06.596,iAIS,!AIVDM,1,1,,B,16K2:t@001aKEwHCNaDsfVb>2<1S,0*6F
2016/01/01 00:00:06.612,iLOG,$VDVBW,-000.02,,A,000.00,000.00,A,,V,00.00,V*4E
2016/01/01 00:00:06.674,iLOG,$VDVLW,84814.02,N,5.23,N*58
2016/01/01 00:00:06.815,iAIS,!AIVDM,1,1,,B,16KPdoh01waJuD:C@;iU=T<>20Rh,0*5B
2016/01/01 00:00:06.940,iAIS,!AIVDM,1,1,,B,B6KJcf@0LbFjiD4oLL24KwS7kP06,0*32
2016/01/01 00:00:06.987,iAIS,!AIVDM,2,1,9,A,56KJVN000000`kK?O20@4TdDpl59F2222222221@68@586vf,0*44
2016/01/01 00:00:07.002,iAIS,!AIVDM,2,2,9,A,0;ORT856183iQ`888888880,2*36
2016/01/01 00:00:07.205,iAIS,!AIVDM,1,1,,B,15Qu4p001?aJnwpCE6rbr`l>0<1B,0*12
2016/01/01 00:00:07.362,iAIS,!AIVDO,1,1,,,16K2EhQ000aKB=:CMdS;o@:>05p0,0*54
2016/01/01 00:00:07.393,iAIS,!AIVDM,1,1,,A,16K2=:h000aKBiHCNgT7CVt>00Rp,0*3A
2016/01/01 00:00:07.424,iAIS,!AIVDM,1,1,,A,18LBSF001`aIkfpCFA3s0`j60<29,0*3F
2016/01/01 00:00:07.455,iWIND,$WIMWV,342,R,003.1,M,A*39
2016/01/01 00:00:07.455,tAIS,$GPGGA,,3400.948,N,13147.370,E,,,,,,,,,*6B
2016/01/01 00:00:07.455,tAIS,$GPVTG,303.7,T,,,00.0,N,00.0,K*2A
2016/01/01 00:00:07.455,tAIS,$HEHDT,005,T*34
2016/01/01 00:00:07.455,tAIS,$GPROT,000.0,A*31
2016/01/01 00:00:07.502,iWIND,$WIMWV,346,T,003.0,M,A*3A
2016/01/01 00:00:07.752,iLOG,$VDVBW,-000.02,,A,000.00,000.00,A,,V,00.00,V*4E
2016/01/01 00:00:07.768,iGPS,$GPRMB,A,,,,,,,,,,,,,A*4A
2016/01/01 00:00:07.815,iLOG,$VDVLW,84814.02,N,5.23,N*58
2016/01/01 00:00:07.924,iGPS,$GPGGA,150007.00,3400.943,N,13147.378,E,1,08,01.0,+0023,M,+029,M,,*59
2016/01/01 00:00:08.018,iAIS,!AIVDM,1,1,,B,16SnVh0vBI9KJi@C>te=1:J>05p0,0*16
2016/01/01 00:00:08.096,iGPS,$GPRMC,150007.00,A,3400.943,N,13147.378,E,00.0,275.,311215,07.,W,A*23
2016/01/01 00:00:08.112,iAIS,!AIVDM,1,1,,B,16K2MD0000aKrV@CKQN`Rs8>00Ri,0*77
2016/01/01 00:00:08.205,iGPS,$GPGLL,3400.943,N,13147.378,E,150007.00,A,A*6F
2016/01/01 00:00:08.284,iGPS,$GPVTG,275,T,282,M,00.0,N,00.0,K,A*2B
2016/01/01 00:00:08.330,iAIS,!AIVDM,1,1,,A,16L`960001aK;rdCNBeciPHB0D1V,0*6D
2016/01/01 00:00:08.346,iGPS,$GPAPB,A,A,,,,,,,,,,,,,A*29
2016/01/01 00:00:08.409,iGPS,$GPDTM,W84,,,,,,,W84*4A
2016/01/01 00:00:08.455,iWIND,$WIMWV,340,R,002.9,M,A*32
2016/01/01 00:00:08.455,iGPS,$GPXTE,A,A,,,,A*1F
2016/01/01 00:00:08.455,iAIS,!AIVDO,1,1,,,16K2EhQ000aKB=:CMdS;q@:@05p0,0*34
2016/01/01 00:00:08.502,iWIND,$WIMWV,345,T,002.9,M,A*31
2016/01/01 00:00:08.549,iGPS,$GPZDA,150007.00,31,12,2015,-09,00*46
2016/01/01 00:00:08.565,tAIS,$GPGGA,,3400.948,N,13147.370,E,,,,,,,,,*6B
2016/01/01 00:00:08.565,tAIS,$GPVTG,304.5,T,,,00.0,N,00.0,K*2F
2016/01/01 00:00:08.565,tAIS,$HEHDT,005,T*34
2016/01/01 00:00:08.565,tAIS,$GPROT,000.0,A*31
2016/01/01 00:00:08.596,iAIS,!AIVDM,1,1,,B,35BP?f1001aK8otCMpuq?Jt@0000,0*5A
2016/01/01 00:00:08.627,iLOG,$VDVBW,-000.02,,A,000.00,000.00,A,,V,00.00,V*4E
2016/01/01 00:00:08.690,iLOG,$VDVLW,84814.02,N,5.23,N*58
2016/01/01 00:00:08.924,iAIS,!AIVDM,1,1,,B,16K8AW0000aK;JhCN7SQP0LB00S5,0*44
2016/01/01 00:00:08.940,iAIS,!AIVDM,1,1,,B,16Lb2<0000aJH7DCNNDi74PB0H5>,0*1E
2016/01/01 00:00:09.268,iAIS,!AIVDM,1,1,,B,A0476d1<fpWkh2Jv0D8`6wu3vm4OwQGr4AGvBwLG,0*66
2016/01/01 00:00:09.409,iAIS,!AIVDM,2,1,0,A,56KJa>000000`gCSC20pw:1TuE<QF0l59F2222168p?;47>T,0*69
2016/01/01 00:00:09.424,iAIS,!AIVDM,2,2,0,A,0:?RT856183iQciH8888880,2*6C
2016/01/01 00:00:09.455,iWIND,$WIMWV,340,R,002.8,M,A*33
2016/01/01 00:00:09.502,iWIND,$WIMWV,345,T,002.7,M,A*3F
2016/01/01 00:00:09.565,iAIS,!AIVDO,1,1,,,16K2EhQ000aKB=8CMdS<0h:B05p0,0*5A
2016/01/01 00:00:09.612,iLOG,$VDVBW,-000.01,,A,000.00,000.00,A,,V,00.00,V*4D
2016/01/01 00:00:09.674,tAIS,$GPGGA,,3400.948,N,13147.370,E,,,,,,,,,*6B
2016/01/01 00:00:09.674,tAIS,$GPVTG,307.5,T,,,00.0,N,00.0,K*2C
2016/01/01 00:00:09.674,tAIS,$HEHDT,005,T*34
2016/01/01 00:00:09.674,tAIS,$GPROT,000.0,A*31
2016/01/01 00:00:09.674,iLOG,$VDVLW,84814.02,N,5.23,N*58
2016/01/01 00:00:09.752,iAIS,!AIVDM,1,1,,B,16K2HMh000aKV<JCM?l:=nJD0D1S,0*20
2016/01/01 00:00:09.752,iGPS,$GPRMB,A,,,,,,,,,,,,,A*4A
2016/01/01 00:00:09.909,iGPS,$GPGGA,150009.00,3400.943,N,13147.378,E,1,08,01.0,+0023,M,+029,M,,*57
2016/01/01 00:00:10.065,iGPS,$GPRMC,150009.00,A,3400.943,N,13147.378,E,00.0,275.,311215,07.,W,A*2D
2016/01/01 00:00:10.143,iAIS,!AIVDM,1,1,,B,40476d1uw?g0:aGNVPCL4e7005p0,0*63
2016/01/01 00:00:10.205,iAIS,!AIVDM,2,1,1,A,56KPhcl00000`kKGOF1=0TppE:22222222222216<PD7<4@S,0*41
2016/01/01 00:00:10.221,iGPS,$PJRCD,GP,7,311215,1500,A,A,A,A,12,0,10,0,,,8,1,320.0,1,114,*4F
2016/01/01 00:00:10.221,iAIS,!AIVDM,2,2,1,A,D=ORT83kQ83iQ`888888880,2*77
2016/01/01 00:00:10.284,iGPS,$PJRCD,GP,9,A,A,,,,,,,*4D
2016/01/01 00:00:10.299,iAIS,!AIVDM,1,1,,B,H6KJUs0d4UDpl59F22222222220,2*69
2016/01/01 00:00:10.455,iWIND,$WIMWV,341,R,002.7,M,A*3D
2016/01/01 00:00:10.471,iAIS,!AIVDM,1,1,,B,A0476d1<fpWkh2Jv0E<P4?tK1@PJwgp5>@1@,0*58
2016/01/01 00:00:10.502,iWIND,$WIMWV,346,T,002.7,M,A*3C
2016/01/01 00:00:10.627,iLOG,$VDVBW,-000.01,,A,000.00,000.00,A,,V,00.00,V*4D
2016/01/01 00:00:10.659,iAIS,!AIVDM,1,1,,B,16KDNAh01uaKf5tCCo<s2plD0D2=,0*02
2016/01/01 00:00:10.674,iAIS,!AIVDO,1,1,,,16K2EhQ000aKB=6CMdS<:@:D05p0,0*70
2016/01/01 00:00:10.674,iLOG,$VDVLW,84814.02,N,5.23,N*58
2016/01/01 00:00:10.737,iAIS,!AIVDM,1,1,,B,16KjvpP02>9KDQpCD=q;2`hB0<1u,0*3E
2016/01/01 00:00:10.768,tAIS,$GPGGA,,3400.948,N,13147.370,E,,,,,,,,,*6B
2016/01/01 00:00:10.768,tAIS,$GPVTG,311.3,T,,,00.0,N,00.0,K*2D
2016/01/01 00:00:10.768,tAIS,$HEHDT,005,T*34
2016/01/01 00:00:10.768,tAIS,$GPROT,000.0,A*31
2016/01/01 00:00:10.846,iAIS,!AIVDM,1,1,,B,14S@sR0028aK4N2CD=SCuS:F25p0,0*4D
2016/01/01 00:00:10.940,iAIS,!AIVDM,1,1,,B,16K2E=h02CaHi=<CGMu42S<F0<3l,0*0B
2016/01/01 00:00:11.205,iAIS,!AIVDM,1,1,,B,16KVqgh001aKW1NCM1@Hm92F2<1e,0*3F
2016/01/01 00:00:11.299,iAIS,!AIVDM,1,1,,A,16UQJd801gaJvWrCCj4dTb4F00Re,0*64
2016/01/01 00:00:11.346,iAIS,!AIVDM,1,1,,A,16K2M@P02?aK6dvCDdss18jH20Rr,0*5C
2016/01/01 00:00:11.455,iWIND,$WIMWV,342,R,002.7,M,A*3E
2016/01/01 00:00:11.502,iWIND,$WIMWV,346,T,002.7,M,A*3C
2016/01/01 00:00:11.534,iAIS,!AIVDM,1,1,,A,16K2FR00009KCv@CNuARUipH05p0,0*61
2016/01/01 00:00:11.627,iLOG,$VDVBW,-000.01,,A,000.00,000.00,A,,V,00.00,V*4D
2016/01/01 00:00:11.690,iLOG,$VDVLW,84814.02,N,5.23,N*58
2016/01/01 00:00:11.737,iGPS,$GPRMB,A,,,,,,,,,,,,,A*4A
2016/01/01 00:00:11.784,iAIS,!AIVDO,1,1,,,16K2EhQ000aKB=4CMdRtAP:F05p0,0*52
2016/01/01 00:00:11.877,tAIS,$GPGGA,,3400.948,N,13147.370,E,,,,,,,,,*6B
2016/01/01 00:00:11.877,tAIS,$GPVTG,314.2,T,,,00.0,N,00.0,K*29
2016/01/01 00:00:11.877,tAIS,$HEHDT,005,T*34
2016/01/01 00:00:11.877,tAIS,$GPROT,000.0,A*31
2016/01/01 00:00:11.893,iGPS,$GPGGA,150011.00,3400.943,N,13147.378,E,1,08,01.0,+0023,M,+029,M,,*5E
2016/01/01 00:00:12.065,iGPS,$GPRMC,150011.00,A,3400.943,N,13147.378,E,00.0,275.,311215,07.,W,A*24
2016/01/01 00:00:12.096,iAIS,!AIVDM,1,1,,B,15CnO@0022aJf1lCDDH41S@F00Sa,0*7A
2016/01/01 00:00:12.174,iGPS,$GPGLL,3400.943,N,13147.378,E,150011.00,A,A*68
2016/01/01 00:00:12.205,iAIS,!AIVDM,1,1,,B,16K2=7O0009KEqLCN`TJRVVH2@78,0*30
2016/01/01 00:00:12.252,iGPS,$GPVTG,275,T,282,M,00.0,N,00.0,K,A*2B
2016/01/01 00:00:12.315,iGPS,$GPAPB,A,A,,,,,,,,,,,,,A*29
2016/01/01 00:00:12.377,iGPS,$GPDTM,W84,,,,,,,W84*4A
2016/01/01 00:00:12.393,iAIS,!AIVDM,1,1,,B,16KJUFP01taJJi6CCKFA;@pJ2<2W,0*4D
2016/01/01 00:00:12.424,iGPS,$GPXTE,A,A,,,,A*1F
2016/01/01 00:00:12.455,iWIND,$WIMWV,342,R,002.7,M,A*3E
2016/01/01 00:00:12.502,iWIND,$WIMWV,347,T,002.7,M,A*3D
2016/01/01 00:00:12.518,iGPS,$GPZDA,150011.00,31,12,2015,-09,00*41
2016/01/01 00:00:12.627,iLOG,$VDVBW,-000.01,,A,000.00,000.00,A,,V,00.00,V*4D
2016/01/01 00:00:12.690,iLOG,$VDVLW,84814.02,N,5.23,N*58
2016/01/01 00:00:12.893,iAIS,!AIVDO,1,1,,,16K2EhQ000aKB=4CMdRt9P:H05p0,0*24
2016/01/01 00:00:12.987,tAIS,$GPGGA,,3400.948,N,13147.370,E,,,,,,,,,*6B
2016/01/01 00:00:12.987,tAIS,$GPVTG,311.0,T,,,00.0,N,00.0,K*2E
2016/01/01 00:00:12.987,tAIS,$HEHDT,005,T*34
2016/01/01 00:00:12.987,tAIS,$GPROT,000.0,A*31
2016/01/01 00:00:13.127,iAIS,!AIVDM,1,1,,A,16K2PMh027aL6SrCCuo3KjhB0D1v,0*33
2016/01/01 00:00:13.455,iWIND,$WIMWV,342,R,002.6,M,A*3F
2016/01/01 00:00:13.455,iAIS,!AIVDM,1,1,,A,16SnVh0vBH9KJelC>uLe0rJH0H7o,0*1E
2016/01/01 00:00:13.471,iAIS,!AIVDM,1,1,,B,16KJTIh01qaKfttCHJhL7IjL0<1l,0*06
2016/01/01 00:00:13.502,iWIND,$WIMWV,347,T,002.6,M,A*3C
2016/01/01 00:00:13.612,iAIS,!AIVDM,1,1,,A,16KDPehP2JaIG>LCFLJD6gvJ0@7u,0*5E
2016/01/01 00:00:13.705,iGPS,$GPRMB,A,,,,,,,,,,,,,A*4A
2016/01/01 00:00:13.721,iAIS,!AIVDM,1,1,,B,16UJll0022aJMv>CDpS3j32<0D<M,0*56
2016/01/01 00:00:13.768,iLOG,$VDVBW,-000.01,,A,000.00,000.00,A,,V,00.00,V*4D
2016/01/01 00:00:13.830,iLOG,$VDVLW,84814.02,N,5.23,N*58
2016/01/01 00:00:13.877,iGPS,$GPGGA,150013.00,3400.943,N,13147.378,E,1,08,01.0,+0023,M,+029,M,,*5C
2016/01/01 00:00:14.002,iAIS,!AIVDO,1,1,,,16K2EhQ000aKB=2CMdRcn@:J05p0,0*70
2016/01/01 00:00:14.034,iGPS,$GPRMC,150013.00,A,3400.943,N,13147.378,E,00.0,275.,311215,07.,W,A*26
2016/01/01 00:00:14.096,tAIS,$GPGGA,,3400.948,N,13147.370,E,,,,,,,,,*6B
2016/01/01 00:00:14.096,tAIS,$GPVTG,303.3,T,,,00.0,N,00.0,K*2E
2016/01/01 00:00:14.096,tAIS,$HEHDT,005,T*34
2016/01/01 00:00:14.096,tAIS,$GPROT,000.0,A*31
2016/01/01 00:00:14.174,iGPS,$PJRCD,GP,7,311215,1500,A,A,A,A,12,0,10,0,,,8,1,320.0,1,114,*4F
2016/01/01 00:00:14.237,iGPS,$PJRCD,GP,9,A,A,,,,,,,*4D
2016/01/01 00:00:14.252,iAIS,!AIVDM,1,1,,B,16KJdE00009K@1pCO=G08UhN0D1B,0*7B
2016/01/01 00:00:14.393,iAIS,!AIVDM,2,1,2,B,56KJaIP24jWd`gCO;61@teEA=DLTl59F222222166h:387?R,0*26
2016/01/01 00:00:14.409,iAIS,!AIVDM,2,2,2,B,0;wRT8561:53jmF@C@JH880,2*69
2016/01/01 00:00:14.455,iWIND,$WIMWV,346,R,002.8,M,A*35
2016/01/01 00:00:14.502,iWIND,$WIMWV,351,T,002.7,M,A*3A
2016/01/01 00:00:14.627,iAIS,!AIVDM,1,1,,B,16KPhch01h9K3vRCIstrDHBN20SE,0*3D
2016/01/01 00:00:14.627,iLOG,$VDVBW,-000.01,,A,000.00,000.00,A,,V,00.00,V*4D
2016/01/01 00:00:14.690,iLOG,$VDVLW,84814.02,N,5.23,N*58
2016/01/01 00:00:14.737,iDL,000004    117,      1,      2,     17,*16
2016/01/01 00:00:15.049,iAIS,!AIVDM,1,1,,A,16KDR0@000aK>mPCNP;:I0<L00SS,0*40
2016/01/01 00:00:15.080,iAIS,!AIVDM,1,1,,A,16KJd00002aKUujCM=8KenJN088l,0*05
2016/01/01 00:00:15.112,iAIS,!AIVDO,1,1,,,16K2EhQ000aKB<vCMdRKKh:N05p0,0*14
2016/01/01 00:00:15.159,iAIS,!AIVDM,1,1,,B,36KJaIU0009K@30CN<69vVJNP000,0*27
2016/01/01 00:00:15.205,tAIS,$GPGGA,,3400.948,N,13147.370,E,,,,,,,,,*6B
2016/01/01 00:00:15.205,tAIS,$GPVTG,292.7,T,,,00.0,N,00.0,K*23
2016/01/01 00:00:15.205,tAIS,$HEHDT,005,T*34
2016/01/01 00:00:15.205,tAIS,$GPROT,000.0,A*31
2016/01/01 00:00:15.268,iAIS,!AIVDM,1,1,,B,A0476d1<fpWkh2Jv0I0`6wu0tU4OwQ7l4AGvAw<G,0*47
2016/01/01 00:00:15.455,iWIND,$WIMWV,348,R,002.9,M,A*3A
2016/01/01 00:00:15.502,iWIND,$WIMWV,352,T,002.8,M,A*36
2016/01/01 00:00:15.612,iLOG,$VDVBW,-000.01,,A,000.00,000.00,A,,V,00.00,V*4D
2016/01/01 00:00:15.674,iLOG,$VDVLW,84814.02,N,5.23,N*58
2016/01/01 00:00:15.690,iAIS,!AIVDM,1,1,,A,16K2SS@000aKCo6CNtqd6irP0@9;,0*7B
2016/01/01 00:00:15.690,iGPS,$GPRMB,A,,,,,,,,,,,,,A*4A
2016/01/01 00:00:15.862,iGPS,$GPGGA,150015.00,3400.943,N,13147.378,E,1,08,01.0,+0023,M,+029,M,,*5A
2016/01/01 00:00:16.018,iGPS,$GPRMC,150015.00,A,3400.943,N,13147.378,E,00.0,275.,311215,07.,W,A*20
2016/01/01 00:00:16.127,iGPS,$GPGLL,3400.943,N,13147.378,E,150015.00,A,A*6C
2016/01/01 00:00:16.221,iAIS,!AIVDO,1,1,,,16K2EhQ000aKB<tCMdRK8h:P05p0,0*7B
2016/01/01 00:00:16.221,iGPS,$GPVTG,275,T,282,M,00.0,N,00.0,K,A*2B
2016/01/01 00:00:16.284,iGPS,$GPAPB,A,A,,,,,,,,,,,,,A*29
2016/01/01 00:00:16.299,tAIS,$GPGGA,,3400.948,N,13147.369,E,,,,,,,,,*63
2016/01/01 00:00:16.299,tAIS,$GPVTG,285.1,T,,,00.0,N,00.0,K*23
2016/01/01 00:00:16.299,tAIS,$HEHDT,005,T*34
2016/01/01 00:00:16.299,tAIS,$GPROT,000.0,A*31
2016/01/01 00:00:16.346,iGPS,$GPDTM,W84,,,,,,,W84*4A
2016/01/01 00:00:16.377,iGPS,$GPXTE,A,A,,,,A*1F
2016/01/01 00:00:16.455,iWIND,$WIMWV,348,R,002.9,M,A*3A
2016/01/01 00:00:16.471,iAIS,!AIVDM,1,1,,B,16KJVG@P009KCS`CNsFsR?vP00T6,0*42
2016/01/01 00:00:16.471,iGPS,$GPZDA,150015.00,31,12,2015,-09,00*45
2016/01/01 00:00:16.502,iWIND,$WIMWV,352,T,002.8,M,A*36
2016/01/01 00:00:16.612,iLOG,$VDVBW,-000.01,,A,000.00,000.00,A,,V,00.00,V*4D
2016/01/01 00:00:16.674,iLOG,$VDVLW,84814.02,N,5.23,N*58
2016/01/01 00:00:16.815,iAIS,!AIVDM,1,1,,A,16K2:t@001aKEwJCNaE;M6bR289m,0*32
2016/01/01 00:00:16.971,iAIS,!AIVDM,1,1,,A,16K2E=h02CaHiF:CGMg423<R0D3l,0*6B
2016/01/01 00:00:16.987,iAIS,!AIVDM,1,1,,B,16K2M@P02>aK6T@CDe8;0HjR25p0,0*54
2016/01/01 00:00:17.018,iAIS,!AIVDM,1,1,,B,36K2DiA000aK?BBCMEo2DhpR0Dsb,0*6D
2016/01/01 00:00:17.049,iAIS,!AIVDM,1,1,,A,15Qu4p001?aJno`CE73rp`lR00S=,0*36
2016/01/01 00:00:17.315,iAIS,!AIVDO,1,1,,,16K2EhQ000aKB<rCMdR:fP:R05p0,0*68
2016/01/01 00:00:17.393,iAIS,!AIVDM,1,1,,A,16KjvpP02?aKDD@CD>1K0`hR00Rn,0*14
2016/01/01 00:00:17.409,tAIS,$GPGGA,,3400.948,N,13147.369,E,,,,,,,,,*63
2016/01/01 00:00:17.409,tAIS,$GPVTG,274.6,T,,,00.0,N,00.0,K*2A
2016/01/01 00:00:17.409,tAIS,$HEHDT,005,T*34
2016/01/01 00:00:17.409,tAIS,$GPROT,000.0,A*31
2016/01/01 00:00:17.455,iWIND,$WIMWV,348,R,002.9,M,A*3A
2016/01/01 00:00:17.502,iWIND,$WIMWV,352,T,002.8,M,A*36
2016/01/01 00:00:17.596,iLOG,$VDVBW,000.00,,A,000.00,000.00,A,,V,00.00,V*61
2016/01/01 00:00:17.612,iAIS,!AIVDM,1,1,,B,16UKkD0P1b9JiKtCE0IK7`tD08=>,0*5D
2016/01/01 00:00:17.659,iLOG,$VDVLW,84814.02,N,5.23,N*58
2016/01/01 00:00:17.674,iAIS,!AIVDM,1,1,,B,A0476d1<fpWkh2Jv0Kd`6wtuuE4OwPoo4AGvAO@G,0*5A
2016/01/01 00:00:17.674,iGPS,$GPRMB,A,,,,,,,,,,,,,A*4A
2016/01/01 00:00:17.830,iAIS,!AIVDM,1,1,,A,16S`on0029aHja@CGgm;18rR0H:K,0*6F
2016/01/01 00:00:17.846,iGPS,$GPGGA,150017.00,3400.943,N,13147.378,E,1,08,01.0,+0023,M,+029,M,,*58
2016/01/01 00:00:17.987,iAIS,!AIVDM,1,1,,B,16K2=:h000aKBiHCNgT7CVtR08:Q,0*14
2016/01/01 00:00:18.002,iGPS,$GPRMC,150017.00,A,3400.943,N,13147.378,E,00.0,275.,311215,07.,W,A*22
2016/01/01 00:00:18.143,iGPS,$PJRCD,GP,7,311215,1500,A,A,A,A,12,0,10,0,,,8,1,320.0,1,115,*4E
2016/01/01 00:00:18.205,iAIS,!AIVDM,1,1,,B,18LBSF001`aIkS@CFADs1`jL0<29,0*35
2016/01/01 00:00:18.205,iGPS,$PJRCD,GP,9,A,A,,,,,,,*4D
2016/01/01 00:00:18.424,iAIS,!AIVDO,1,1,,,16K2EhQ000aKB<pCMdQrS@:T05p0,0*02
2016/01/01 00:00:18.455,iWIND,$WIMWV,347,R,002.9,M,A*35
2016/01/01 00:00:18.487,iAIS,!AIVDM,1,1,,A,16K8AW0000aK;JjCN7T1P0LV0D1w,0*62
2016/01/01 00:00:18.502,iWIND,$WIMWV,352,T,002.8,M,A*36
2016/01/01 00:00:18.518,tAIS,$GPGGA,,3400.948,N,13147.369,E,,,,,,,,,*63
2016/01/01 00:00:18.518,tAIS,$GPVTG,270.1,T,,,00.0,N,00.0,K*29
2016/01/01 00:00:18.518,tAIS,$HEHDT,005,T*34
2016/01/01 00:00:18.518,tAIS,$GPROT,000.0,A*31
2016/01/01 00:00:18.596,iLOG,$VDVBW,000.00,,A,000.00,000.00,A,,V,00.00,V*61
2016/01/01 00:00:18.659,iLOG,$VDVLW,84814.02,N,5.23,N*58
2016/01/01 00:00:19.112,iAIS,!AIVDM,1,1,,B,16KVqg0P00aGa3jCHf>cTgvV25p0,0*33
2016/01/01 00:00:19.237,iAIS,!AIVDM,1,1,,B,16L`960000aK;rdCNBeKiPHV0<1V,0*2B
2016/01/01 00:00:19.455,iWIND,$WIMWV,347,R,002.9,M,A*35
2016/01/01 00:00:19.502,iWIND,$WIMWV,352,T,002.9,M,A*37
2016/01/01 00:00:19.534,iAIS,!AIVDO,1,1,,,16K2EhQ000aKB<nCMdQrFh:V05p0,0*23
2016/01/01 00:00:19.627,tAIS,$GPGGA,,3400.948,N,13147.369,E,,,,,,,,,*63
2016/01/01 00:00:19.627,tAIS,$GPVTG,265.1,T,,,00.0,N,00.0,K*2D
2016/01/01 00:00:19.627,tAIS,$HEHDT,005,T*34
2016/01/01 00:00:19.627,tAIS,$GPROT,000.0,A*31
2016/01/01 00:00:19.659,iGPS,$GPRMB,A,,,,,,,,,,,,,A*4A
2016/01/01 00:00:19.737,iLOG,$VDVBW,000.00,,A,000.00,000.00,A,,V,00.00,V*61
2016/01/01 00:00:19.784,iLOG,$VDVLW,84814.02,N,5.23,N*58
2016/01/01 00:00:19.830,iGPS,$GPGGA,150019.00,3400.943,N,13147.378,E,1,08,01.0,+0023,M,+029,M,,*56
2016/01/01 00:00:19.987,iGPS,$GPRMC,150019.00,A,3400.943,N,13147.378,E,00.0,275.,311215,07.,W,A*2C
2016/01/01 00:00:20.065,iAIS,!AIVDM,1,1,,B,16K2FR00009KCv@CNuATGAp`0@;g,0*1F
2016/01/01 00:00:20.096,iAIS,!AIVDM,1,1,,B,16SnVh0vjHaKJ``C>vKu0bJV08;h,0*05
2016/01/01 00:00:20.096,iGPS,$GPGLL,3400.943,N,13147.378,E,150019.00,A,A*60
2016/01/01 00:00:20.112,iAIS,!AIVDM,1,1,,B,16UQJd801faJvR8CCjmLTr4V0<1C,0*11
2016/01/01 00:00:20.143,iAIS,!AIVDM,1,1,,A,40476d1uw?g0DaGNVPCL4e7008;j,0*02
2016/01/01 00:00:20.190,iGPS,$GPVTG,275,T,282,M,00.0,N,00.0,K,A*2B
2016/01/01 00:00:20.252,iGPS,$GPAPB,A,A,,,,,,,,,,,,,A*29
2016/01/01 00:00:20.299,iAIS,!AIVDM,1,1,,A,16K2HMh000aKV<HCM?lJ=nJb05p0,0*24
2016/01/01 00:00:20.315,iGPS,$GPDTM,W84,,,,,,,W84*4A
2016/01/01 00:00:20.330,iAIS,!AIVDM,1,1,,A,16Lb2<0000aJH7BCNNE174Pb08;q,0*53
2016/01/01 00:00:20.346,iGPS,$GPXTE,A,A,,,,A*1F
2016/01/01 00:00:20.440,iGPS,$GPZDA,150019.00,31,12,2015,-09,00*49
2016/01/01 00:00:20.455,iWIND,$WIMWV,347,R,003.0,M,A*3D
2016/01/01 00:00:20.502,iWIND,$WIMWV,352,T,002.9,M,A*37
2016/01/01 00:00:20.565,iAIS,!AIVDM,1,1,,A,D0476d0WHS6DWHS6D0,4*07
2016/01/01 00:00:20.643,iAIS,!AIVDO,1,1,,,16K2EhQ000aKB<lCMdQarP:`05p0,0*08
2016/01/01 00:00:20.674,iLOG,$VDVBW,000.01,,A,000.00,000.00,A,,V,00.00,V*60
2016/01/01 00:00:20.737,tAIS,$GPGGA,,3400.948,N,13147.369,E,,,,,,,,,*63
2016/01/01 00:00:20.737,tAIS,$GPVTG,253.8,T,,,00.0,N,00.0,K*21
2016/01/01 00:00:20.737,tAIS,$HEHDT,005,T*34
2016/01/01 00:00:20.737,tAIS,$GPROT,000.0,A*31
2016/01/01 00:00:20.737,iLOG,$VDVLW,84814.02,N,5.23,N*58
2016/01/01 00:00:21.268,iAIS,!AIVDM,1,1,,B,A0476d1<fpWkh2Jv0NH`6wtpu54OwPSo4AGv@OHG,0*33
2016/01/01 00:00:21.455,iWIND,$WIMWV,346,R,003.0,M,A*3C
2016/01/01 00:00:21.502,iWIND,$WIMWV,351,T,003.0,M,A*3C
2016/01/01 00:00:21.565,iAIS,!AIVDM,1,1,,A,16KVqgh001aKW1FCM1@8sa4d2@<W,0*65
2016/01/01 00:00:21.627,iLOG,$VDVBW,000.01,,A,000.00,000.00,A,,V,00.00,V*60
2016/01/01 00:00:21.643,iGPS,$GPRMB,A,,,,,,,,,,,,,A*4A
2016/01/01 00:00:21.674,iLOG,$VDVLW,84814.02,N,5.23,N*58
2016/01/01 00:00:21.752,iAIS,!AIVDO,1,1,,,16K2EhQ000aKB<jCMdQIoP:b05p0,0*39
2016/01/01 00:00:21.768,iAIS,!AIVDM,1,1,,A,14S@sR0029aK4e`CD=?3v3:d20S8,0*45
2016/01/01 00:00:21.799,iGPS,$GPGGA,150021.00,3400.943,N,13147.378,E,1,08,01.0,+0023,M,+029,M,,*5D
2016/01/01 00:00:21.830,tAIS,$GPGGA,,3400.948,N,13147.369,E,,,,,,,,,*63
2016/01/01 00:00:21.830,tAIS,$GPVTG,252.6,T,,,00.0,N,00.0,K*2E
2016/01/01 00:00:21.830,tAIS,$HEHDT,005,T*34
2016/01/01 00:00:21.830,tAIS,$GPROT,000.0,A*31
2016/01/01 00:00:21.971,iGPS,$GPRMC,150021.00,A,3400.943,N,13147.378,E,00.0,275.,311215,07.,W,A*27
2016/01/01 00:00:22.112,iGPS,$PJRCD,GP,7,311215,1500,A,A,A,A,12,0,10,0,,,8,1,320.0,1,114,*4F
2016/01/01 00:00:22.159,iAIS,!AIVDM,2,1,3,B,56K2;Nh2@4it`C;GOR0d4TPuF0l59F222222221@70<397?@,0*22
2016/01/01 00:00:22.174,iAIS,!AIVDM,2,2,3,B,e;ORT856188888888888880,2*01
2016/01/01 00:00:22.174,iGPS,$PJRCD,GP,9,A,A,,,,,,,*4D
2016/01/01 00:00:22.455,iWIND,$WIMWV,345,R,003.0,M,A*3F
2016/01/01 00:00:22.471,iAIS,!AIVDM,1,1,,B,A0476d1<fpWkh2Jv0OLP4?t=uhPJwg7o>@1@,0*25
2016/01/01 00:00:22.502,iWIND,$WIMWV,350,T,003.0,M,A*3D
2016/01/01 00:00:22.612,iLOG,$VDVBW,000.02,,A,000.00,000.00,A,,V,00.00,V*63
2016/01/01 00:00:22.659,iAIS,!AIVDM,1,1,,B,16K2E=h02CaHiO:CGMQ423>f0@=@,0*47
2016/01/01 00:00:22.674,iLOG,$VDVLW,84814.02,N,5.23,N*58
2016/01/01 00:00:22.674,iAIS,!AIVDM,1,1,,A,16KJUFP01taJJpHCCL`1<hpf2D2W,0*03
2016/01/01 00:00:22.862,iAIS,!AIVDO,1,1,,,16K2EhQ000aKB<jCMdQ9a0:d05p0,0*21
2016/01/01 00:00:22.940,tAIS,$GPGGA,,3400.948,N,13147.369,E,,,,,,,,,*63
2016/01/01 00:00:22.940,tAIS,$GPVTG,246.8,T,,,00.0,N,00.0,K*25
2016/01/01 00:00:22.940,tAIS,$HEHDT,005,T*34
2016/01/01 00:00:22.940,tAIS,$GPROT,000.0,A*31
2016/01/01 00:00:22.987,iAIS,!AIVDM,3,1,4,A,80476d00@00?2CQSlS@E2Ckg`<<>d<2Tm8521H52A0C80mDT,0*09
2016/01/01 00:00:23.002,iAIS,!AIVDM,3,2,4,A,QCU82Dp5p1kjCQp<H2kSm4p2CPlQ@DjCQp9`3@F8<p2kSm4p,0*01
2016/01/01 00:00:23.018,iAIS,!AIVDM,3,3,4,A,3l`3ClQKg2hCSCk`3@DU2DwP,0*7D
2016/01/01 00:00:23.034,iAIS,!AIVDM,1,1,,A,16UJll0022aJNBDCDpCkjC4`05p0,0*3A
2016/01/01 00:00:23.159,iAIS,!AIVDM,1,1,,B,16KjvpP02?aKD<vCD>;s0`jd00SR,0*62
2016/01/01 00:00:23.205,iAIS,!AIVDM,1,1,,A,16K2M@P02>aK6KVCDeD:wpjf20Rj,0*15
2016/01/01 00:00:23.268,iAIS,!AIVDM,1,1,,B,H6KJUs5=653hhhi:;mkikP7P@480,0*0B
2016/01/01 00:00:23.362,iAIS,!AIVDM,1,1,,B,D0476d0R4S6DR4S6D0,4*04
2016/01/01 00:00:23.440,iAIS,$AIALR,,,,,*7B
2016/01/01 00:00:23.455,iWIND,$WIMWV,345,R,002.9,M,A*37
2016/01/01 00:00:23.502,iWIND,$WIMWV,349,T,002.9,M,A*3D
2016/01/01 00:00:23.612,iLOG,$VDVBW,000.03,,A,000.00,000.00,A,,V,00.00,V*62
2016/01/01 00:00:23.627,iGPS,$GPRMB,A,,,,,,,,,,,,,A*4A
2016/01/01 00:00:23.674,iAIS,!AIVDM,1,1,,B,A0476d1<fpWkh2Jv0OP`2?sv0lD9wVl4JQOvj@9B,0*28
2016/01/01 00:00:23.674,iLOG,$VDVLW,84814.02,N,5.23,N*58
2016/01/01 00:00:23.690,iAIS,!AIVDM,1,1,,A,15CnO@0022aJfALCDCw41S@f0@=o,0*21
2016/01/01 00:00:23.721,iAIS,!AIVDM,1,1,,A,16K2=7O0009KEqNCN`TbRFVh2<1V,0*3D
2016/01/01 00:00:23.784,iGPS,$GPGGA,150023.00,3400.943,N,13147.378,E,1,08,01.0,+0023,M,+029,M,,*5F
2016/01/01 00:00:23.955,iGPS,$GPRMC,150023.00,A,3400.943,N,13147.378,E,00.0,275.,311215,07.,W,A*25
2016/01/01 00:00:23.971,iAIS,!AIVDO,1,1,,,16K2EhQ000aKB<hCMdQ9J@:f05p0,0*7A
2016/01/01 00:00:24.049,tAIS,$GPGGA,,3400.948,N,13147.369,E,,,,,,,,,*63
2016/01/01 00:00:24.049,tAIS,$GPVTG,240.9,T,,,00.0,N,00.0,K*22
2016/01/01 00:00:24.049,tAIS,$HEHDT,005,T*34
2016/01/01 00:00:24.049,tAIS,$GPROT,000.0,A*31
2016/01/01 00:00:24.065,iGPS,$GPGLL,3400.943,N,13147.378,E,150023.00,A,A*69
2016/01/01 00:00:24.143,iGPS,$GPVTG,275,T,282,M,00.0,N,00.0,K,A*2B
2016/01/01 00:00:24.221,iGPS,$GPAPB,A,A,,,,,,,,,,,,,A*29
2016/01/01 00:00:24.221,iAIS,!AIVDM,1,1,,B,16K2SS@000aKCo:CNtqt?Qrh05p0,0*5A
2016/01/01 00:00:24.268,iGPS,$GPDTM,W84,,,,,,,W84*4A
2016/01/01 00:00:24.284,iAIS,!AIVDM,1,1,,B,16KJd00000aKUupCM=9KBFJh00Sk,0*52
2016/01/01 00:00:24.315,iGPS,$GPXTE,A,A,,,,A*1F
2016/01/01 00:00:24.409,iGPS,$GPZDA,150023.00,31,12,2015,-09,00*40
2016/01/01 00:00:24.455,iWIND,$WIMWV,345,R,002.8,M,A*36
2016/01/01 00:00:24.502,iWIND,$WIMWV,350,T,002.7,M,A*3B
2016/01/01 00:00:24.596,iLOG,$VDVBW,000.03,,A,000.00,000.00,A,,V,00.00,V*62
2016/01/01 00:00:24.627,iAIS,!AIVDM,1,1,,A,16KJdE00009K@1nCO=G5o5fj0@>J,0*7D
2016/01/01 00:00:24.659,iLOG,$VDVLW,84814.02,N,5.23,N*58
2016/01/01 00:00:25.018,iAIS,!AIVDM,1,1,,A,16KPhch01h9K3jnCIskrC8Bj28>a,0*13
2016/01/01 00:00:25.065,iAIS,!AIVDO,1,1,,,16K2EhQ000aKB<fCMdPqS0:h05p0,0*5A
2016/01/01 00:00:25.143,iAIS,!AIVDM,2,1,5,B,56K8AW02;ftt`OG?KB19Tu`4r0l59F222222221@6H>297?F,0*19
2016/01/01 00:00:25.159,iAIS,!AIVDM,2,2,5,B,N;wRT856183iQ`888888880,2*7F
2016/01/01 00:00:25.159,tAIS,$GPGGA,,3400.948,N,13147.369,E,,,,,,,,,*63
2016/01/01 00:00:25.159,tAIS,$GPVTG,244.4,T,,,00.0,N,00.0,K*2B
2016/01/01 00:00:25.159,tAIS,$HEHDT,005,T*34
2016/01/01 00:00:25.159,tAIS,$GPROT,000.0,A*31
2016/01/01 00:00:25.205,iAIS,!AIVDM,1,1,,A,15E8hp001m9J2rLCF77rnpdl05p0,0*40
2016/01/01 00:00:25.455,iWIND,$WIMWV,346,R,002.8,M,A*35
2016/01/01 00:00:25.502,iWIND,$WIMWV,350,T,002.8,M,A*34
2016/01/01 00:00:25.612,iGPS,$GPRMB,A,,,,,,,,,,,,,A*4A
2016/01/01 00:00:25.705,iAIS,!AIVDM,2,1,6,A,56KJcP@2<sM4`gGGON0pw:1@teET4l6222222216:8M=47?`,0*69
2016/01/01 00:00:25.721,iAIS,!AIVDM,2,2,6,A,N=gRT856188888888888880,2*02
2016/01/01 00:00:25.752,iAIS,!AIVDM,1,1,,B,16KPckh01jaHG00CIVbDnCll2L2h,0*2F
2016/01/01 00:00:25.752,iLOG,$VDVBW,000.03,,A,000.00,000.00,A,,V,00.00,V*62
2016/01/01 00:00:25.768,iGPS,$GPGGA,150025.00,3400.943,N,13147.378,E,1,08,01.0,+0023,M,+029,M,,*59
2016/01/01 00:00:25.815,iLOG,$VDVLW,84814.02,N,5.23,N*58
2016/01/01 00:00:25.924,iGPS,$GPRMC,150025.00,A,3400.943,N,13147.378,E,00.0,275.,311215,07.,W,A*23
2016/01/01 00:00:26.080,iGPS,$PJRCD,GP,7,311215,1500,A,A,A,A,12,0,10,0,,,8,1,320.0,1,114,*4F
2016/01/01 00:00:26.096,iAIS,!AIVDM,1,1,,A,16KDPehP2JaIGPnCFKpD5wvj0@?A,0*20
2016/01/01 00:00:26.143,iGPS,$PJRCD,GP,9,A,A,,,,,,,*4D
2016/01/01 00:00:26.143,iAIS,!AIVDM,1,1,,B,16KDR0@000aK>mPCNP;:I0<l0D1j,0*4C
2016/01/01 00:00:26.174,iAIS,!AIVDO,1,1,,,16K2EhQ000aKB<bCMdPrA0:l05p0,0*4B
2016/01/01 00:00:26.252,iAIS,!AIVDM,1,1,,A,16SnVh0vjHaKJSfC>wLM0:Jl05p0,0*71
2016/01/01 00:00:26.268,tAIS,$GPGGA,,3400.948,N,13147.368,E,,,,,,,,,*62
2016/01/01 00:00:26.268,tAIS,$GPVTG,262.8,T,,,00.0,N,00.0,K*23
2016/01/01 00:00:26.268,tAIS,$HEHDT,005,T*34
2016/01/01 00:00:26.268,tAIS,$GPROT,000.0,A*31
2016/01/01 00:00:26.299,iAIS,!AIVDM,1,1,,A,36KJU41000aKF>4CN3MrarTm0000,0*0F
2016/01/01 00:00:26.455,iWIND,$WIMWV,347,R,003.0,M,A*3D
2016/01/01 00:00:26.502,iWIND,$WIMWV,351,T,002.9,M,A*34
2016/01/01 00:00:26.643,iLOG,$VDVBW,000.03,,A,000.00,000.00,A,,V,00.00,V*62
2016/01/01 00:00:26.659,iAIS,!AIVDM,1,1,,B,16S`on0029aHjN0CGh6c18rj0H?V,0*1F
2016/01/01 00:00:26.705,iLOG,$VDVLW,84814.02,N,5.23,N*58
2016/01/01 00:00:26.705,iAIS,!AIVDM,1,1,,A,16KJVG@P009KCRjCNsJKGwvl00S7,0*19
2016/01/01 00:00:27.018,iAIS,!AIVDM,1,1,,B,16K2:t@000aKEwHCNaDs;nbn25p0,0*70
2016/01/01 00:00:27.112,iAIS,!AIVDM,2,1,7,B,58LBSF02BevoUH<kR20=8Tm<tr0L5?:22222221A9@H3=4@e,0*07
2016/01/01 00:00:27.127,iAIS,!AIVDM,2,2,7,B,0;2l`5C4hCcEkH888888880,2*79
2016/01/01 00:00:27.159,iAIS,!AIVDM,1,1,,A,16UP8b0023aEnRNCNgO3Djbf0Up0,0*30
2016/01/01 00:00:27.205,iAIS,!AIVDM,1,1,,B,15Qu4p001@aJngFCE7=rqHln00Sr,0*30
2016/01/01 00:00:27.268,iAIS,!AIVDM,1,1,,B,A0476d1<fpWkh2Jv0TDP4?t:v@PJwfoq>@1@,0*5D
2016/01/01 00:00:27.284,iAIS,!AIVDO,1,1,,,16K2EhQ000aKB<`CMdPbPh:n05p0,0*12
2016/01/01 00:00:27.377,tAIS,$GPGGA,,3400.947,N,13147.368,E,,,,,,,,,*6D
2016/01/01 00:00:27.377,tAIS,$GPVTG,269.1,T,,,00.0,N,00.0,K*21
2016/01/01 00:00:27.377,tAIS,$HEHDT,005,T*34
2016/01/01 00:00:27.377,tAIS,$GPROT,000.0,A*31
2016/01/01 00:00:27.455,iWIND,$WIMWV,347,R,002.9,M,A*35
2016/01/01 00:00:27.502,iWIND,$WIMWV,352,T,002.9,M,A*37
2016/01/01 00:00:27.565,iAIS,!AIVDM,1,1,,A,18LBSF001`aIkHfCFATc28jh0@@8,0*7B
2016/01/01 00:00:27.596,iGPS,$GPRMB,A,,,,,,,,,,,,,A*4A
2016/01/01 00:00:27.643,iLOG,$VDVBW,000.03,,A,000.00,000.00,A,,V,00.00,V*62
2016/01/01 00:00:27.690,iLOG,$VDVLW,84814.02,N,5.23,N*58
2016/01/01 00:00:27.752,iGPS,$GPGGA,150027.00,3400.943,N,13147.378,E,1,08,01.0,+0023,M,+029,M,,*5B
2016/01/01 00:00:27.909,iGPS,$GPRMC,150027.00,A,3400.943,N,13147.378,E,00.0,275.,311215,07.,W,A*21
2016/01/01 00:00:28.018,iAIS,!AIVDM,1,1,,A,16L`960000aK;rVCNBeKiPHp05p0,0*12
2016/01/01 00:00:28.018,iGPS,$GPGLL,3400.943,N,13147.378,E,150027.00,A,A*6D
2016/01/01 00:00:28.112,iGPS,$GPVTG,275,T,282,M,00.0,N,00.0,K,A*2B
2016/01/01 00:00:28.174,iAIS,!AIVDM,1,1,,A,16K2=:h000aKBiHCNgT7CVtn0D1U,0*58
2016/01/01 00:00:28.174,iGPS,$GPAPB,A,A,,,,,,,,,,,,,A*29
2016/01/01 00:00:28.237,iGPS,$GPDTM,W84,,,,,,,W84*4A
2016/01/01 00:00:28.284,iGPS,$GPXTE,A,A,,,,A*1F
2016/01/01 00:00:28.377,iGPS,$GPZDA,150027.00,31,12,2015,-09,00*44
2016/01/01 00:00:28.393,iAIS,!AIVDO,1,1,,,16K2EhQ000aKB<VCMdPbjh:p05p0,0*00
2016/01/01 00:00:28.455,iWIND,$WIMWV,347,R,002.9,M,A*35
2016/01/01 00:00:28.471,tAIS,$GPGGA,,3400.947,N,13147.368,E,,,,,,,,,*6D
2016/01/01 00:00:28.471,tAIS,$GPVTG,276.3,T,,,00.0,N,00.0,K*2D
2016/01/01 00:00:28.471,tAIS,$HEHDT,005,T*34
2016/01/01 00:00:28.471,tAIS,$GPROT,000.0,A*31
2016/01/01 00:00:28.502,iWIND,$WIMWV,352,T,002.8,M,A*36
2016/01/01 00:00:28.612,iLOG,$VDVBW,000.03,,A,000.00,000.00,A,,V,00.00,V*62
2016/01/01 00:00:28.627,iAIS,!AIVDM,1,1,,B,16K2MD0000aKrV@CKQOHRs8p0@@h,0*73
2016/01/01 00:00:28.659,iAIS,!AIVDM,1,1,,B,B6K2KK@002Fii34orLO0kwfUWP06,0*1B
2016/01/01 00:00:28.674,iLOG,$VDVLW,84814.02,N,5.23,N*58
2016/01/01 00:00:28.862,iAIS,!AIVDM,1,1,,A,16KjvpP02?aKD4@CD>H;0pjp00SJ,0*78
2016/01/01 00:00:28.924,iAIS,!AIVDM,1,1,,A,16K2E=h02CaHi`8CGMAl33>r05p0,0*7C
2016/01/01 00:00:28.940,iAIS,!AIVDM,1,1,,B,16K2M@P02>aK6BtCDeOs0Hlr2D1l,0*03
2016/01/01 00:00:29.268,iAIS,!AIVDM,1,1,,B,16K8AW0000aK;InCN7`RU@Jt20RH,0*4A
2016/01/01 00:00:29.346,iAIS,!AIVDM,1,1,,B,16K2HMh000aKV<JCM?l:=nJt00SO,0*1A
2016/01/01 00:00:29.455,iWIND,$WIMWV,348,R,002.9,M,A*3A
2016/01/01 00:00:29.502,iAIS,!AIVDO,1,1,,,16K2EhQ000aKB<VCMdPK0@:r05p0,0*59
2016/01/01 00:00:29.502,iWIND,$WIMWV,353,T,002.8,M,A*37
2016/01/01 00:00:29.549,iAIS,!AIVDM,2,1,8,A,56KJTL02:9lh`gG7GR1@teET4l7;4<DqAE9V22167H:4;7?E,0*13
2016/01/01 00:00:29.549,iAIS,!AIVDM,2,2,8,A,N??RT856188888888888880,2*56
2016/01/01 00:00:29.580,iGPS,$GPRMB,A,,,,,,,,,,,,,A*4A
2016/01/01 00:00:29.580,tAIS,$GPGGA,,3400.947,N,13147.368,E,,,,,,,,,*6D
2016/01/01 00:00:29.580,tAIS,$GPVTG,281.7,T,,,00.0,N,00.0,K*21
2016/01/01 00:00:29.580,tAIS,$HEHDT,005,T*34
2016/01/01 00:00:29.580,tAIS,$GPROT,000.0,A*31
2016/01/01 00:00:29.612,iLOG,$VDVBW,000.03,,A,000.00,000.00,A,,V,00.00,V*62
2016/01/01 00:00:29.674,iLOG,$VDVLW,84814.02,N,5.23,N*58
2016/01/01 00:00:29.737,iGPS,$GPGGA,150029.00,3400.943,N,13147.378,E,1,08,01.0,+0023,M,+029,M,,*55
2016/01/01 00:00:29.752,iAIS,!AIVDM,1,1,,B,16KDNAh01uaKeelCCohK2`lr0<2?,0*79
2016/01/01 00:00:29.799,iAIS,!AIVDM,1,1,,A,16UQJd801gaJvJtCCkjdV:4r08AL,0*7C
2016/01/01 00:00:29.893,iGPS,$GPRMC,150029.00,A,3400.943,N,13147.378,E,00.0,275.,311215,07.,W,A*2F
2016/01/01 00:00:30.049,iGPS,$PJRCD,GP,7,311215,1500,A,A,A,A,12,0,10,0,,,8,1,320.0,1,114,*4F
2016/01/01 00:00:30.112,iGPS,$PJRCD,GP,9,A,A,,,,,,,*4D
2016/01/01 00:00:30.143,iAIS,!AIVDM,1,1,,B,40476d1uw?g0NaGNVPCL4e7000S:,0*3B
2016/01/01 00:00:30.362,iAIS,!AIVDM,1,1,,B,40476D1uw?g0N9MFfHCIeR7005p0,0*26
2016/01/01 00:00:30.455,iWIND,$WIMWV,349,R,002.8,M,A*3A
2016/01/01 00:00:30.502,iWIND,$WIMWV,354,T,002.8,M,A*30
2016/01/01 00:00:30.612,iAIS,!AIVDO,1,1,,,16K2EhQ000aKB<TCMdPKCh:t05p0,0*06
2016/01/01 00:00:30.612,iLOG,$VDVBW,000.02,,A,000.00,000.00,A,,V,00.00,V*63
2016/01/01 00:00:30.674,iLOG,$VDVLW,84814.02,N,5.23,N*58
2016/01/01 00:00:30.690,tAIS,$GPGGA,,3400.947,N,13147.368,E,,,,,,,,,*6D
2016/01/01 00:00:30.690,tAIS,$GPVTG,289.5,T,,,00.0,N,00.0,K*2B
2016/01/01 00:00:30.690,tAIS,$HEHDT,005,T*34
2016/01/01 00:00:30.690,tAIS,$GPROT,000.0,A*31
2016/01/01 00:00:30.924,iAIS,!AIVDM,1,1,,B,16Lb2<0000aJH7BCNNEi74Pv0@B6,0*5A
2016/01/01 00:00:31.127,iAIS,!AIVDM,1,1,,A,16K2FR00009KCv@CNuAQdApv0D1I,0*0C
2016/01/01 00:00:31.455,iWIND,$WIMWV,348,R,002.9,M,A*3A
2016/01/01 00:00:31.502,iWIND,$WIMWV,352,T,002.9,M,A*37
2016/01/01 00:00:31.565,iGPS,$GPRMB,A,,,,,,,,,,,,,A*4A
2016/01/01 00:00:31.643,iAIS,!AIVDM,1,1,,A,36KJaMm000aHfSlCJUmsNo10R000,0*23
2016/01/01 00:00:31.721,iAIS,!AIVDO,1,1,,,16K2EhQ000aKB<RCMdPKKh:v05p0,0*0A
2016/01/01 00:00:31.721,iGPS,$GPGGA,150031.00,3400.943,N,13147.378,E,1,08,01.0,+0023,M,+029,M,,*5C
2016/01/01 00:00:31.737,iAIS,!AIVDM,1,1,,B,16SnVh0vjHaKJP8C?0;<wbJv0D2e,0*0C
2016/01/01 00:00:31.768,iLOG,$VDVBW,000.01,,A,000.00,000.00,A,,V,00.00,V*60
2016/01/01 00:00:31.799,tAIS,$GPGGA,,3400.947,N,13147.368,E,,,,,,,,,*6D
2016/01/01 00:00:31.799,tAIS,$GPVTG,292.7,T,,,00.0,N,00.0,K*23
2016/01/01 00:00:31.799,tAIS,$HEHDT,005,T*34
2016/01/01 00:00:31.799,tAIS,$GPROT,000.0,A*31
2016/01/01 00:00:31.815,iLOG,$VDVLW,84814.02,N,5.23,N*58
2016/01/01 00:00:31.877,iGPS,$GPRMC,150031.00,A,3400.943,N,13147.378,E,00.0,275.,311215,07.,W,A*26
2016/01/01 00:00:31.987,iGPS,$GPGLL,3400.943,N,13147.378,E,150031.00,A,A*6A
2016/01/01 00:00:32.018,iAIS,!AIVDM,1,1,,B,16KVqgh001aKW1>CM1@I2a502@Bg,0*35
2016/01/01 00:00:32.080,iGPS,$GPVTG,275,T,282,M,00.0,N,00.0,K,A*2B
2016/01/01 00:00:32.096,iAIS,!AIVDM,1,1,,B,16K2=7O0009KEqPCN`TrRFW028Bj,0*22
2016/01/01 00:00:32.143,iGPS,$GPAPB,A,A,,,,,,,,,,,,,A*29
2016/01/01 00:00:32.205,iGPS,$GPDTM,W84,,,,,,,W84*4A
2016/01/01 00:00:32.252,iGPS,$GPXTE,A,A,,,,A*1F
2016/01/01 00:00:32.330,iGPS,$GPZDA,150031.00,31,12,2015,-09,00*43
2016/01/01 00:00:32.455,iWIND,$WIMWV,347,R,002.7,M,A*3B
2016/01/01 00:00:32.471,iAIS,!AIVDM,1,1,,A,16K2PMh026aL6wrCCuwSI2hr0@C0,0*34
2016/01/01 00:00:32.502,iWIND,$WIMWV,351,T,002.7,M,A*3A
2016/01/01 00:00:32.596,iAIS,!AIVDM,1,1,,B,16KJUFP01saJJw0CCMi1?hq225p0,0*72
2016/01/01 00:00:32.659,iLOG,$VDVBW,000.01,,A,000.00,000.00,A,,V,00.00,V*60
2016/01/01 00:00:32.721,iLOG,$VDVLW,84814.02,N,5.23,N*58
2016/01/01 00:00:32.830,iAIS,!AIVDO,1,1,,,16K2EhQ000aKB<RCMdP;Qh;005p0,0*27
2016/01/01 00:00:32.909,tAIS,$GPGGA,,3400.947,N,13147.368,E,,,,,,,,,*6D
2016/01/01 00:00:32.909,tAIS,$GPVTG,295.1,T,,,00.0,N,00.0,K*22
2016/01/01 00:00:32.909,tAIS,$HEHDT,005,T*34
2016/01/01 00:00:32.909,tAIS,$GPROT,000.0,A*31
2016/01/01 00:00:33.205,iAIS,!AIVDM,1,1,,B,16UJll0023aJNM4CDp;3k32p0<<M,0*38
2016/01/01 00:00:33.268,iAIS,!AIVDM,1,1,,B,A0476d1<fpWkh2Jv0`8`6wtl2U4OwP484AGv?PTG,0*1A
2016/01/01 00:00:33.299,iAIS,!AIVDM,1,1,,A,36KJTuA000aH`K>CItH=cAW32000,0*01
2016/01/01 00:00:33.455,iWIND,$WIMWV,347,R,002.6,M,A*3A
2016/01/01 00:00:33.502,iWIND,$WIMWV,351,T,002.6,M,A*3B
2016/01/01 00:00:33.534,iGPS,$GPRMB,A,,,,,,,,,,,,,A*4A
2016/01/01 00:00:33.627,iLOG,$VDVBW,000.01,,A,000.00,000.00,A,,V,00.00,V*60
2016/01/01 00:00:33.690,iLOG,$VDVLW,84814.02,N,5.23,N*58
2016/01/01 00:00:33.705,iGPS,$GPGGA,150033.00,3400.943,N,13147.378,E,1,08,01.0,+0023,M,+029,M,,*5E
2016/01/01 00:00:33.862,iGPS,$GPRMC,150033.00,A,3400.943,N,13147.378,E,00.0,275.,311215,07.,W,A*24
2016/01/01 00:00:33.924,iAIS,!AIVDO,1,1,,,16K2EhQ000aKB<PCMdP;`h;205p0,0*16
2016/01/01 00:00:34.002,iGPS,$PJRCD,GP,7,311215,1500,A,A,A,A,12,0,10,0,,,8,1,320.0,1,114,*4F
2016/01/01 00:00:34.002,tAIS,$GPGGA,,3400.947,N,13147.368,E,,,,,,,,,*6D
2016/01/01 00:00:34.002,tAIS,$GPVTG,297.9,T,,,00.0,N,00.0,K*28
2016/01/01 00:00:34.002,tAIS,$HEHDT,005,T*34
2016/01/01 00:00:34.002,tAIS,$GPROT,000.0,A*31
2016/01/01 00:00:34.065,iGPS,$PJRCD,GP,9,A,A,,,,,,,*4D
2016/01/01 00:00:34.112,iAIS,!AIVDM,1,1,,B,16KPhch01haK3`LCIshbD8A42L25,0*05
2016/01/01 00:00:34.455,iWIND,$WIMWV,346,R,002.7,M,A*3A
2016/01/01 00:00:34.502,iWIND,$WIMWV,351,T,002.6,M,A*3B
2016/01/01 00:00:34.627,iLOG,$VDVBW,000.01,,A,000.00,000.00,A,,V,00.00,V*60
2016/01/01 00:00:34.690,iLOG,$VDVLW,84814.02,N,5.23,N*58
2016/01/01 00:00:34.705,iAIS,!AIVDM,1,1,,B,16KJTIh01paKfa4CHLPL7ak608DD,0*66
2016/01/01 00:00:34.752,iAIS,!AIVDM,1,1,,B,15E8hp001m9J2fFCF7C:o8g80<19,0*3E
2016/01/01 00:00:34.846,iAIS,!AIVDM,1,1,,A,36KVp3A001aHbw4CHlb6RiQ20000,0*6E
2016/01/01 00:00:34.924,iAIS,!AIVDM,1,1,,B,16KJdE00009K@1jCO=FdFEg605p0,0*6F
2016/01/01 00:00:35.002,iAIS,!AIVDM,1,1,,B,16K2E=h02CaHii:CGM2l3S?600Rr,0*47
2016/01/01 00:00:35.034,iAIS,!AIVDO,1,1,,,16K2EhQ000aKB<PCMdP;gP;405p0,0*2F
2016/01/01 00:00:35.112,tAIS,$GPGGA,,3400.947,N,13147.368,E,,,,,,,,,*6D
2016/01/01 00:00:35.112,tAIS,$GPVTG,300.6,T,,,00.0,N,00.0,K*28
2016/01/01 00:00:35.112,tAIS,$HEHDT,005,T*34
2016/01/01 00:00:35.112,tAIS,$GPROT,000.0,A*31
2016/01/01 00:00:35.299,iAIS,!AIVDM,1,1,,B,16KjvpP02?aKCr0CD>Vs18k60<1u,0*43
2016/01/01 00:00:35.377,iAIS,!AIVDM,1,1,,A,16K2M@P02>aK6:FCDecs1`m828De,0*04
2016/01/01 00:00:35.424,iAIS,!AIVDM,1,1,,B,36LeE850009K?t:CO6:LImg40000,0*49
2016/01/01 00:00:35.455,iWIND,$WIMWV,346,R,002.7,M,A*3A
2016/01/01 00:00:35.502,iWIND,$WIMWV,351,T,002.6,M,A*3B
2016/01/01 00:00:35.518,iGPS,$GPRMB,A,,,,,,,,,,,,,A*4A
2016/01/01 00:00:35.627,iLOG,$VDVBW,000.01,,A,000.00,000.00,A,,V,00.00,V*60
2016/01/01 00:00:35.674,iAIS,!AIVDM,1,1,,B,A0476d1<fpWkh2Jv0bl`6wtlwm4OwP014AGv?@0G,0*48
2016/01/01 00:00:35.674,iLOG,$VDVLW,84814.02,N,5.23,N*58
2016/01/01 00:00:35.690,iGPS,$GPGGA,150035.00,3400.943,N,13147.378,E,1,08,01.0,+0023,M,+029,M,,*58
2016/01/01 00:00:35.846,iGPS,$GPRMC,150035.00,A,3400.943,N,13147.378,E,00.0,275.,311215,07.,W,A*22
2016/01/01 00:00:35.846,iAIS,!AIVDM,1,1,,A,16KDR0@000aK>mPCNP;:I0?20<1k,0*6B
2016/01/01 00:00:35.877,iAIS,!AIVDM,1,1,,A,16KJd000019KUwHCM=CGl6K805p0,0*36
2016/01/01 00:00:35.955,iGPS,$GPGLL,3400.943,N,13147.378,E,150035.00,A,A*6E
2016/01/01 00:00:35.955,iAIS,!AIVDM,1,1,,A,36K2SS@001aKCnvCNtrdJAq805hk,0*71
2016/01/01 00:00:36.049,iGPS,$GPVTG,275,T,282,M,00.0,N,00.0,K,A*2B
2016/01/01 00:00:36.112,iGPS,$GPAPB,A,A,,,,,,,,,,,,,A*29
2016/01/01 00:00:36.112,iAIS,!AIVDM,1,1,,A,16KPckh01jaHG:2CIUvlj3m82<2h,0*4A
2016/01/01 00:00:36.143,iAIS,!AIVDO,1,1,,,16K2EhQ000aKB<NCMdOso0;805p0,0*02
2016/01/01 00:00:36.159,iGPS,$GPDTM,W84,,,,,,,W84*4A
2016/01/01 00:00:36.174,iAIS,!AIVDM,1,1,,A,H6KJar1@teDPU8v222222222220,2*25
2016/01/01 00:00:36.205,iGPS,$GPXTE,A,A,,,,A*1F
2016/01/01 00:00:36.221,tAIS,$GPGGA,,3400.947,N,13147.368,E,,,,,,,,,*6D
2016/01/01 00:00:36.221,tAIS,$GPVTG,303.6,T,,,00.0,N,00.0,K*2B
2016/01/01 00:00:36.221,tAIS,$HEHDT,005,T*34
2016/01/01 00:00:36.221,tAIS,$GPROT,000.0,A*31
2016/01/01 00:00:36.299,iGPS,$GPZDA,150035.00,31,12,2015,-09,00*47
2016/01/01 00:00:36.455,iWIND,$WIMWV,346,R,002.7,M,A*3A
2016/01/01 00:00:36.502,iWIND,$WIMWV,350,T,002.7,M,A*3B
2016/01/01 00:00:36.627,iLOG,$VDVBW,000.02,,A,000.00,000.00,A,,V,00.00,V*63
2016/01/01 00:00:36.690,iLOG,$VDVLW,84814.02,N,5.23,N*58
2016/01/01 00:00:36.705,iAIS,!AIVDM,1,1,,A,16KPdoh01waJui6C@8s5<D=:25p0,0*6B
2016/01/01 00:00:36.940,iAIS,!AIVDM,1,1,,A,17bjI`001QaIfR`CFiUrr`i80L0u,0*2C
2016/01/01 00:00:36.955,iAIS,!AIVDM,1,1,,B,16UKkD0P1b9Ji70CE0w;78tt0<18,0*4D
2016/01/01 00:00:37.080,iAIS,!AIVDM,1,1,,A,16S`on0029aHj>dCGhM;18u600R`,0*63
2016/01/01 00:00:37.112,iAIS,!AIVDM,1,1,,A,15Qu4p001>aJnW0CE7Hbspm:0<1C,0*5E
2016/01/01 00:00:37.127,iAIS,!AIVDM,1,1,,A,16K2:t@000aKEwNCNaEc@Fc:20S;,0*4F
2016/01/01 00:00:37.190,iAIS,!AIVDM,1,1,,B,16KJVG@P009KCRnCNsLsGOw:08Ei,0*0F
2016/01/01 00:00:37.205,iAIS,!AIVDM,1,1,,A,B6KJcf@0LbFjd`ToK`f4Gwj7kP06,0*32
2016/01/01 00:00:37.252,iAIS,!AIVDO,1,1,,,16K2EhQ000aKB<NCMdOsp@;:05p0,0*6F
2016/01/01 00:00:37.330,tAIS,$GPGGA,,3400.947,N,13147.368,E,,,,,,,,,*6D
2016/01/01 00:00:37.330,tAIS,$GPVTG,304.1,T,,,00.0,N,00.0,K*2B
2016/01/01 00:00:37.330,tAIS,$HEHDT,005,T*34
2016/01/01 00:00:37.330,tAIS,$GPROT,000.0,A*31
2016/01/01 00:00:37.455,iWIND,$WIMWV,347,R,002.6,M,A*3A
2016/01/01 00:00:37.502,iGPS,$GPRMB,A,,,,,,,,,,,,,A*4A
2016/01/01 00:00:37.502,iWIND,$WIMWV,351,T,002.6,M,A*3B
2016/01/01 00:00:37.643,iAIS,!AIVDM,2,1,9,A,56KJd0029;OT`g;?;H1@QDpqE>3<0000000000167P;:67?8,0*57
2016/01/01 00:00:37.659,iAIS,!AIVDM,2,2,9,A,`>jT8561000000000000000,2*47
2016/01/01 00:00:37.659,iGPS,$GPGGA,150037.00,3400.943,N,13147.378,E,1,08,01.0,+0023,M,+029,M,,*5A
2016/01/01 00:00:37.705,iAIS,!AIVDM,2,1,0,B,56:>`FP2>8@T8T9G<01`PV1<P4p00000000000168h:767?j,0*29
2016/01/01 00:00:37.721,iAIS,!AIVDM,2,2,0,B,0<RT8561000000000000000,2*27
2016/01/01 00:00:37.721,iAIS,!AIVDM,1,1,,B,16K2=:h000aKBiHCNgT7CVu:05p0,0*5B
2016/01/01 00:00:37.768,iLOG,$VDVBW,000.02,,A,000.00,000.00,A,,V,00.00,V*63
2016/01/01 00:00:37.830,iGPS,$GPRMC,150037.00,A,3400.943,N,13147.378,E,00.0,275.,311215,07.,W,A*20
2016/01/01 00:00:37.830,iLOG,$VDVLW,84814.02,N,5.23,N*58
2016/01/01 00:00:37.971,iGPS,$PJRCD,GP,7,311215,1500,A,A,A,A,12,0,10,0,,,8,1,320.0,1,114,*4F
2016/01/01 00:00:38.018,iAIS,!AIVDM,1,1,,B,18LBSF001`aIk=8CFAms2`i60L29,0*00
2016/01/01 00:00:38.034,iGPS,$PJRCD,GP,9,A,A,,,,,,,*4D
2016/01/01 00:00:38.096,iAIS,!AIVDM,1,1,,A,B6K2TV@00:Fm>C4oeTbu?wk5WP06,0*6F
2016/01/01 00:00:38.143,iAIS,!AIVDM,1,1,,A,16KDPehP2IaIGkJCFKI45?w:0D42,0*10
2016/01/01 00:00:38.174,iAIS,!AIVDM,1,1,,B,16L`960000aK;rPCNBeKiPI<0HFF,0*67
2016/01/01 00:00:38.284,iAIS,!AIVDM,1,1,,A,16SnVh01jHaKJK0C?1=LwJK<08FJ,0*68
2016/01/01 00:00:38.362,iAIS,!AIVDO,1,1,,,16K2EhQ000aKB<LCMdOt2P;<05p0,0*3E
2016/01/01 00:00:38.409,iAIS,!AIVDM,1,1,,B,16KVqg0P00aGa3rCHf>Kkww>28FO,0*01
2016/01/01 00:00:38.440,tAIS,$GPGGA,,3400.947,N,13147.368,E,,,,,,,,,*6D
2016/01/01 00:00:38.440,tAIS,$GPVTG,308.2,T,,,00.0,N,00.0,K*24
2016/01/01 00:00:38.440,tAIS,$HEHDT,005,T*34
2016/01/01 00:00:38.440,tAIS,$GPROT,000.0,A*31
2016/01/01 00:00:38.455,iWIND,$WIMWV,346,R,002.5,M,A*38
2016/01/01 00:00:38.502,iWIND,$WIMWV,350,T,002.4,M,A*38
2016/01/01 00:00:38.627,iLOG,$VDVBW,000.02,,A,000.00,000.00,A,,V,00.00,V*63
2016/01/01 00:00:38.690,iLOG,$VDVLW,84814.02,N,5.23,N*58
2016/01/01 00:00:38.940,iAIS,!AIVDM,1,1,,A,16K8AW0000aK;J0CN7`jePK>20Rn,0*61
2016/01/01 00:00:39.268,iAIS,!AIVDM,1,1,,B,A0476d1<fpWkh2Jv0e0`6wtl354OwP0=4AGv?@tG,0*47
2016/01/01 00:00:39.455,iWIND,$WIMWV,346,R,002.7,M,A*3A
2016/01/01 00:00:39.471,iAIS,!AIVDO,1,1,,,16K2EhQ000aKB<LCMdOt5P;>05p0,0*3B
2016/01/01 00:00:39.487,iGPS,$GPRMB,A,,,,,,,,,,,,,A*4A
2016/01/01 00:00:39.502,iWIND,$WIMWV,350,T,002.7,M,A*3B
2016/01/01 00:00:39.534,tAIS,$GPGGA,,3400.947,N,13147.368,E,,,,,,,,,*6D
2016/01/01 00:00:39.534,tAIS,$GPVTG,309.4,T,,,00.0,N,00.0,K*23
2016/01/01 00:00:39.534,tAIS,$HEHDT,005,T*34
2016/01/01 00:00:39.534,tAIS,$GPROT,000.0,A*31
2016/01/01 00:00:39.627,iLOG,$VDVBW,000.03,,A,000.00,000.00,A,,V,00.00,V*62
2016/01/01 00:00:39.643,iGPS,$GPGGA,150039.00,3400.943,N,13147.378,E,1,08,01.0,+0023,M,+029,M,,*54
2016/01/01 00:00:39.690,iLOG,$VDVLW,84814.02,N,5.23,N*58
2016/01/01 00:00:39.799,iGPS,$GPRMC,150039.00,A,3400.943,N,13147.378,E,00.0,275.,311215,07.,W,A*2E
2016/01/01 00:00:39.830,iAIS,!AIVDM,1,1,,B,16UQJd801gaJvCjCClhLV:5>0HGD,0*76
2016/01/01 00:00:39.909,iGPS,$GPGLL,3400.943,N,13147.378,E,150039.00,A,A*62
2016/01/01 00:00:40.002,iGPS,$GPVTG,275,T,282,M,00.0,N,00.0,K,A*2B
2016/01/01 00:00:40.065,iAIS,!AIVDM,1,1,,B,16K2FR00009KCv@CNuAT4iq@08GM,0*4B
2016/01/01 00:00:40.065,iGPS,$GPAPB,A,A,,,,,,,,,,,,,A*29
2016/01/01 00:00:40.127,iGPS,$GPDTM,W84,,,,,,,W84*4A
2016/01/01 00:00:40.143,iAIS,!AIVDM,1,1,,A,40476d1uw?g0`aGNVPCL4e7008GP,0*60
2016/01/01 00:00:40.174,iGPS,$GPXTE,A,A,,,,A*1F
2016/01/01 00:00:40.252,iGPS,$GPZDA,150039.00,31,12,2015,-09,00*4B
2016/01/01 00:00:40.330,iAIS,!AIVDM,1,1,,A,40476D1uw?g0`9MFfHCIeR700D4d,0*6A
2016/01/01 00:00:40.409,iAIS,!AIVDM,1,1,,A,16K2HMh000aKV<JCM?kr=nKB00Rp,0*5F
2016/01/01 00:00:40.455,iWIND,$WIMWV,346,R,002.8,M,A*35
2016/01/01 00:00:40.471,iAIS,!AIVDM,1,1,,B,A0476d1<fpWkh2Jv0f4P4?t=whPJwfp0>@1@,0*6F
2016/01/01 00:00:40.487,iAIS,!AIVDM,1,1,,A,16K2E=h02CaHir:CGLkT3k?B0@Ge,0*01
2016/01/01 00:00:40.502,iWIND,$WIMWV,350,T,002.7,M,A*3B
2016/01/01 00:00:40.565,iAIS,!AIVDM,1,1,,A,D0476d01@R2lfpFfpvQC6DvQC6D,2*0A
2016/01/01 00:00:40.580,iAIS,!AIVDO,1,1,,,16K2EhQ000aKB<JCMdOt7@;@05p0,0*51
2016/01/01 00:00:40.627,iLOG,$VDVBW,000.03,,A,000.00,000.00,A,,V,00.00,V*62
2016/01/01 00:00:40.627,iAIS,!AIVDM,1,1,,A,16KVqgh001aKW18CM1@I:I7B25p0,0*70
2016/01/01 00:00:40.643,tAIS,$GPGGA,,3400.947,N,13147.368,E,,,,,,,,,*6D
2016/01/01 00:00:40.643,tAIS,$GPVTG,310.1,T,,,00.0,N,00.0,K*2E
2016/01/01 00:00:40.643,tAIS,$HEHDT,005,T*34
2016/01/01 00:00:40.643,tAIS,$GPROT,000.0,A*31
2016/01/01 00:00:40.690,iLOG,$VDVLW,84814.02,N,5.23,N*58
2016/01/01 00:00:40.705,iAIS,!AIVDM,1,1,,A,16Lb2<0000aJH7BCNNEA74QB0D2C,0*45
2016/01/01 00:00:40.987,iAIS,!AIVDM,2,1,1,B,56K2@p42BFD4`C?77>0eTteE@teF0l59F222221@6H=737?G,0*12
2016/01/01 00:00:41.002,iAIS,!AIVDM,2,2,1,B,N:wRT856183iQ`888888880,2*7A
2016/01/01 00:00:41.049,iAIS,!AIVDM,1,1,,B,16K2M@P02>aK61dCDeps1pmB20S5,0*18
2016/01/01 00:00:41.346,iAIS,!AIVDM,1,1,,A,16KDNAh01uaKeNTCCp7;2pmB0<2@,0*07
2016/01/01 00:00:41.393,iAIS,!AIVDM,1,1,,A,16KjvpP02?aKCi@CD>kc28kB0@H?,0*3E
2016/01/01 00:00:41.455,iWIND,$WIMWV,344,R,002.6,M,A*39
2016/01/01 00:00:41.471,iGPS,$GPRMB,A,,,,,,,,,,,,,A*4A
2016/01/01 00:00:41.502,iWIND,$WIMWV,349,T,002.6,M,A*32
2016/01/01 00:00:41.627,iGPS,$GPGGA,150041.00,3400.943,N,13147.378,E,1,08,01.0,+0023,M,+029,M,,*5B
2016/01/01 00:00:41.643,iLOG,$VDVBW,000.04,,A,000.00,000.00,A,,V,00.00,V*65
2016/01/01 00:00:41.674,iAIS,!AIVDM,1,1,,B,A0476d1<fpWkh2Jv0f``2?st04D9wVgwJQOviwqB,0*5F
2016/01/01 00:00:41.690,iAIS,!AIVDO,1,1,,,16K2EhQ000aKB<JCMdOd:0;B05p0,0*3E
2016/01/01 00:00:41.690,iLOG,$VDVLW,84814.02,N,5.23,N*58
2016/01/01 00:00:41.752,tAIS,$GPGGA,,3400.947,N,13147.368,E,,,,,,,,,*6D
2016/01/01 00:00:41.752,tAIS,$GPVTG,311.2,T,,,00.0,N,00.0,K*2C
2016/01/01 00:00:41.752,tAIS,$HEHDT,005,T*34
2016/01/01 00:00:41.752,tAIS,$GPROT,000.0,A*31
2016/01/01 00:00:41.784,iGPS,$GPRMC,150041.00,A,3400.943,N,13147.378,E,00.0,275.,311215,07.,W,A*21
2016/01/01 00:00:41.940,iGPS,$PJRCD,GP,7,311215,1500,A,A,A,A,12,0,10,0,,,8,1,320.0,1,114,*4F
2016/01/01 00:00:41.987,iGPS,$PJRCD,GP,9,A,A,,,,,,,*4D
2016/01/01 00:00:42.018,iAIS,!AIVDM,1,1,,B,B6KDNn@00:FqcOToDb3DGwlUkP06,0*41
2016/01/01 00:00:42.174,iAIS,!AIVDM,1,1,,A,16K2=7O0009KEqRCN`UJUnWD20Sn,0*5C
2016/01/01 00:00:42.455,iWIND,$WIMWV,347,R,002.5,M,A*39
2016/01/01 00:00:42.502,iWIND,$WIMWV,352,T,002.4,M,A*3A
2016/01/01 00:00:42.627,iLOG,$VDVBW,000.05,,A,000.00,000.00,A,,V,00.00,V*64
2016/01/01 00:00:42.674,iLOG,$VDVLW,84814.02,N,5.23,N*58
2016/01/01 00:00:42.784,iAIS,!AIVDO,1,1,,,16K2EhQ000aKB<hCMdNtG@;D05p0,0*06
2016/01/01 00:00:42.862,tAIS,$GPGGA,,3400.947,N,13147.369,E,,,,,,,,,*6C
2016/01/01 00:00:42.862,tAIS,$GPVTG,316.5,T,,,00.0,N,00.0,K*2C
2016/01/01 00:00:42.862,tAIS,$HEHDT,005,T*34
2016/01/01 00:00:42.862,tAIS,$GPROT,000.0,A*31
2016/01/01 00:00:43.080,iAIS,!AIVDM,1,1,,A,16KJUFP01taJK5dCCNri=hsF25p0,0*55
2016/01/01 00:00:43.205,iAIS,!AIVDM,1,1,,B,16SnVh01jHaKJGBC?1ttvrKF0D2e,0*00
2016/01/01 00:00:43.330,iAIS,!AIVDM,2,1,2,B,56K2;g000000`C;K3:04UL4l59F222222222221@6@>557?>,0*5A
2016/01/01 00:00:43.346,iAIS,!AIVDM,2,2,2,B,N<2T;E61888888888888880,2*48
2016/01/01 00:00:43.377,iAIS,!AIVDM,1,1,,B,D0476d01TR2lfpFfpq=C6Dq=C6D,2*1D
2016/01/01 00:00:43.440,iGPS,$GPRMB,A,,,,,,,,,,,,,A*4A
2016/01/01 00:00:43.455,iWIND,$WIMWV,351,R,002.8,M,A*33
2016/01/01 00:00:43.502,iWIND,$WIMWV,356,T,002.7,M,A*3D
2016/01/01 00:00:43.612,iGPS,$GPGGA,150043.00,3400.943,N,13147.378,E,1,08,01.0,+0023,M,+029,M,,*59
2016/01/01 00:00:43.768,iLOG,$VDVBW,000.07,,A,000.00,000.00,A,,V,00.00,V*66
2016/01/01 00:00:43.768,iGPS,$GPRMC,150043.00,A,3400.943,N,13147.378,E,00.0,275.,311215,07.,W,A*23
2016/01/01 00:00:43.768,iAIS,!AIVDM,1,1,,A,16KJTIh01oaKfP@CHM@t6IkH00ST,0*4E
2016/01/01 00:00:43.830,iLOG,$VDVLW,84814.02,N,5.23,N*58
2016/01/01 00:00:43.877,iGPS,$GPGLL,3400.943,N,13147.378,E,150043.00,A,A*6F
2016/01/01 00:00:43.893,iAIS,!AIVDO,1,1,,,16K2EhQ000aKB=4CMdN<M0;F05p0,0*6B
2016/01/01 00:00:43.971,tAIS,$GPGGA,,3400.946,N,13147.370,E,,,,,,,,,*65
2016/01/01 00:00:43.971,tAIS,$GPVTG,318.8,T,,,00.0,N,00.0,K*2F
2016/01/01 00:00:43.971,tAIS,$HEHDT,005,T*34
2016/01/01 00:00:43.971,tAIS,$GPROT,000.0,A*31
2016/01/01 00:00:43.971,iGPS,$GPVTG,275,T,282,M,00.0,N,00.0,K,A*2B
2016/01/01 00:00:44.034,iGPS,$GPAPB,A,A,,,,,,,,,,,,,A*29
2016/01/01 00:00:44.096,iGPS,$GPDTM,W84,,,,,,,W84*4A
2016/01/01 00:00:44.143,iGPS,$GPXTE,A,A,,,,A*1F
2016/01/01 00:00:44.143,iAIS,!AIVDM,1,1,,A,16KJdE00009K@1jCO=FL:UgH0D1A,0*17
2016/01/01 00:00:44.221,iGPS,$GPZDA,150043.00,31,12,2015,-09,00*46
2016/01/01 00:00:44.252,iAIS,!AIVDM,1,1,,B,16KDPehP2IaIGv`CFK7T4OwH0HIr,0*08
2016/01/01 00:00:44.330,iAIS,!AIVDM,1,1,,A,16UJll0023aJNWrCDp4kkC3800R7,0*11
2016/01/01 00:00:44.455,iWIND,$WIMWV,349,R,003.0,M,A*33
2016/01/01 00:00:44.502,iWIND,$WIMWV,353,T,003.0,M,A*3E
2016/01/01 00:00:44.627,iLOG,$VDVBW,000.07,,A,000.00,000.00,A,,V,00.00,V*66
2016/01/01 00:00:44.690,iLOG,$VDVLW,84814.02,N,5.23,N*58
2016/01/01 00:00:44.784,iAIS,!AIVDM,1,1,,B,16KJd00000aKUw<CM==sInKJ0<1W,0*72
2016/01/01 00:00:44.799,iDL,000004    118,      1,      2,     17,*19
2016/01/01 00:00:44.846,iAIS,!AIVDM,1,1,,A,16KPhch01h9K3KFCIserDHAJ20SV,0*12
2016/01/01 00:00:45.002,iAIS,!AIVDO,1,1,,,16K2EhQ000aKB=@CMdMtRh;H05p0,0*1D
2016/01/01 00:00:45.080,tAIS,$GPGGA,,3400.946,N,13147.370,E,,,,,,,,,*65
2016/01/01 00:00:45.080,tAIS,$GPVTG,321.1,T,,,00.0,N,00.0,K*2C
2016/01/01 00:00:45.080,tAIS,$HEHDT,005,T*34
2016/01/01 00:00:45.080,tAIS,$GPROT,000.0,A*31
2016/01/01 00:00:45.205,iAIS,!AIVDM,1,1,,A,15E8hp001m9J2R@CF7Orr8gL05p0,0*63
2016/01/01 00:00:45.268,iAIS,!AIVDM,1,1,,B,A0476d1<fpWkh2Jv0jH`6wtm3U4OwP4>4AGv?Q0G,0*03
2016/01/01 00:00:45.424,iGPS,$GPRMB,A,,,,,,,,,,,,,A*4A
2016/01/01 00:00:45.455,iWIND,$WIMWV,347,R,003.2,M,A*3F
2016/01/01 00:00:45.502,iWIND,$WIMWV,352,T,003.2,M,A*3D
2016/01/01 00:00:45.580,iGPS,$GPGGA,150045.00,3400.943,N,13147.378,E,1,08,01.0,+0023,M,+029,M,,*5F
2016/01/01 00:00:45.612,iAIS,!AIVDM,1,1,,B,16K2SS@001aKCnhCNtsdTiqL0@Je,0*74
2016/01/01 00:00:45.627,iLOG,$VDVBW,000.08,,A,000.00,000.00,A,,V,00.00,V*69
2016/01/01 00:00:45.690,iLOG,$VDVLW,84814.02,N,5.23,N*58
2016/01/01 00:00:45.752,iGPS,$GPRMC,150045.00,A,3400.943,N,13147.378,E,00.0,275.,311215,07.,W,A*25
2016/01/01 00:00:45.893,iGPS,$PJRCD,GP,7,311215,1500,A,A,A,A,12,0,10,0,,,8,1,320.0,1,115,*4E
2016/01/01 00:00:45.955,iGPS,$PJRCD,GP,9,A,A,,,,,,,*4D
2016/01/01 00:00:45.955,iAIS,!AIVDM,1,1,,B,16KPckh01jaHGD6CIUDDk3oL28Jr,0*38
2016/01/01 00:00:46.112,iAIS,!AIVDO,1,1,,,16K2EhQ000aKB=hCMdLtkh;L05p0,0*09
2016/01/01 00:00:46.174,iAIS,!AIVDM,1,1,,A,16KJVG@P009KCS8CNsM;JgwL08K2,0*14
2016/01/01 00:00:46.174,tAIS,$GPGGA,,3400.946,N,13147.372,E,,,,,,,,,*67
2016/01/01 00:00:46.174,tAIS,$GPVTG,327.9,T,,,00.0,N,00.0,K*22
2016/01/01 00:00:46.174,tAIS,$HEHDT,005,T*34
2016/01/01 00:00:46.174,tAIS,$GPROT,000.0,A*31
2016/01/01 00:00:46.205,iAIS,!AIVDM,1,1,,B,16KPdoh01waJuqlC@85E;l=L2HK3,0*00
2016/01/01 00:00:46.455,iWIND,$WIMWV,346,R,003.2,M,A*3E
2016/01/01 00:00:46.502,iWIND,$WIMWV,351,T,003.2,M,A*3E
2016/01/01 00:00:46.627,iLOG,$VDVBW,000.08,,A,000.00,000.00,A,,V,00.00,V*69
2016/01/01 00:00:46.674,iAIS,!AIVDM,1,1,,B,16KDR0@000aK>mPCNP;:I0?J05p0,0*03
2016/01/01 00:00:46.690,iLOG,$VDVLW,84814.02,N,5.23,N*58
2016/01/01 00:00:46.737,iAIS,!AIVDM,1,1,,B,17bjI`001RaIfHVCFihJrHiL05p0,0*25
2016/01/01 00:00:46.815,iAIS,!AIVDM,1,1,,B,15Qu4p001=aJnN`CE7R:qpmL08KJ,0*56
2016/01/01 00:00:46.940,iAIS,!AIVDM,1,1,,B,16S`on0029aHj2<CGhi;3`uJ00S>,0*69
2016/01/01 00:00:47.002,iAIS,!AIVDM,1,1,,B,16K2E=h02CaHj36CGLTT3k=N0@KQ,0*45
2016/01/01 00:00:47.190,iAIS,!AIVDM,2,1,3,A,56KR@L02<KRWLiI>220u8TDq@4j04<F22222221E9p<787?f,0*0C
2016/01/01 00:00:47.205,iAIS,!AIVDM,2,2,3,A,D:?RT8561;kiQ`888888880,2*62
2016/01/01 00:00:47.221,iAIS,!AIVDO,1,1,,,16K2EhQ000aKB=nCMdLto@;N05p0,0*21
2016/01/01 00:00:47.284,tAIS,$GPGGA,,3400.946,N,13147.372,E,,,,,,,,,*67
2016/01/01 00:00:47.284,tAIS,$GPVTG,329.3,T,,,00.0,N,00.0,K*26
2016/01/01 00:00:47.284,tAIS,$HEHDT,005,T*34
2016/01/01 00:00:47.284,tAIS,$GPROT,000.0,A*31
2016/01/01 00:00:47.346,iAIS,!AIVDM,1,1,,B,16K2:t@000aKEwLCNaFKJ6cP2<1T,0*74
2016/01/01 00:00:47.409,iGPS,$GPRMB,A,,,,,,,,,,,,,A*4A
2016/01/01 00:00:47.455,iWIND,$WIMWV,349,R,003.2,M,A*31
2016/01/01 00:00:47.502,iWIND,$WIMWV,353,T,003.1,M,A*3F
2016/01/01 00:00:47.580,iGPS,$GPGGA,150047.00,3400.943,N,13147.378,E,1,08,01.0,+0023,M,+029,M,,*5D
2016/01/01 00:00:47.627,iLOG,$VDVBW,000.07,,A,000.00,000.00,A,,V,00.00,V*66
2016/01/01 00:00:47.674,iAIS,!AIVDM,1,1,,B,A0476d1<fpWkh2Jv0lT`6wts554OwPHE4AGv@idG,0*75
2016/01/01 00:00:47.674,iLOG,$VDVLW,84814.02,N,5.23,N*58
2016/01/01 00:00:47.737,iGPS,$GPRMC,150047.00,A,3400.943,N,13147.378,E,00.0,275.,311215,07.,W,A*27
2016/01/01 00:00:47.846,iGPS,$GPGLL,3400.943,N,13147.378,E,150047.00,A,A*6B
2016/01/01 00:00:47.940,iGPS,$GPVTG,275,T,282,M,00.0,N,00.0,K,A*2B
2016/01/01 00:00:47.955,iAIS,!AIVDM,1,1,,A,16K2=:h000aKBiHCNgT7CVuN0L1U,0*71
2016/01/01 00:00:48.002,iGPS,$GPAPB,A,A,,,,,,,,,,,,,A*29
2016/01/01 00:00:48.049,iGPS,$GPDTM,W84,,,,,,,W84*4A
2016/01/01 00:00:48.096,iGPS,$GPXTE,A,A,,,,A*1F
2016/01/01 00:00:48.143,iAIS,!AIVDM,1,1,,A,16L`960000aK;rNCNBdciPIP0<1W,0*2D
2016/01/01 00:00:48.190,iGPS,$GPZDA,150047.00,31,12,2015,-09,00*42
2016/01/01 00:00:48.330,iAIS,!AIVDO,1,1,,,16K2EhQ000aKB=rCMdLdw0;P05p0,0*5B
2016/01/01 00:00:48.393,tAIS,$GPGGA,,3400.946,N,13147.373,E,,,,,,,,,*66
2016/01/01 00:00:48.393,tAIS,$GPVTG,332.4,T,,,00.0,N,00.0,K*2B
2016/01/01 00:00:48.393,tAIS,$HEHDT,005,T*34
2016/01/01 00:00:48.393,tAIS,$GPROT,000.0,A*31
2016/01/01 00:00:48.455,iWIND,$WIMWV,347,R,003.1,M,A*3C
2016/01/01 00:00:48.502,iWIND,$WIMWV,351,T,003.0,M,A*3C
2016/01/01 00:00:48.596,iAIS,!AIVDM,1,1,,B,16K2=N001naK<6@C=?aeqK5R25p0,0*48
2016/01/01 00:00:48.612,iLOG,$VDVBW,000.07,,A,000.00,000.00,A,,V,00.00,V*66
2016/01/01 00:00:48.674,iLOG,$VDVLW,84814.02,N,5.23,N*58
2016/01/01 00:00:49.159,iAIS,!AIVDM,1,1,,B,16Lb2<0000aJH7FCNNE174QR0@Lj,0*71
2016/01/01 00:00:49.190,iAIS,!AIVDM,1,1,,B,16K8AW0001aK;J4CN7`jihKR2<1v,0*48
2016/01/01 00:00:49.393,iGPS,$GPRMB,A,,,,,,,,,,,,,A*4A
2016/01/01 00:00:49.440,iAIS,!AIVDO,1,1,,,16K2EhQ000aKB=rCMdLe20;R05p0,0*1D
2016/01/01 00:00:49.455,iWIND,$WIMWV,345,R,002.9,M,A*37
2016/01/01 00:00:49.502,tAIS,$GPGGA,,3400.946,N,13147.373,E,,,,,,,,,*66
2016/01/01 00:00:49.502,tAIS,$GPVTG,333.6,T,,,00.0,N,00.0,K*28
2016/01/01 00:00:49.502,tAIS,$HEHDT,005,T*34
2016/01/01 00:00:49.502,tAIS,$GPROT,000.0,A*31
2016/01/01 00:00:49.502,iWIND,$WIMWV,349,T,002.9,M,A*3D
2016/01/01 00:00:49.549,iGPS,$GPGGA,150049.00,3400.943,N,13147.378,E,1,08,01.0,+0023,M,+029,M,,*53
2016/01/01 00:00:49.690,iAIS,!AIVDM,1,1,,B,16KDNAh01uaKeDJCCpG;3pmR08M6,0*7C
2016/01/01 00:00:49.721,iGPS,$GPRMC,150049.00,A,3400.943,N,13147.378,E,00.0,275.,311215,07.,W,A*29
2016/01/01 00:00:49.752,iLOG,$VDVBW,000.07,,A,000.00,000.00,A,,V,00.00,V*66
2016/01/01 00:00:49.768,iAIS,!AIVDM,1,1,,A,16KDPehP2IaIH6fCFJsl4?wR05p0,0*53
2016/01/01 00:00:49.815,iLOG,$VDVLW,84814.02,N,5.23,N*58
2016/01/01 00:00:49.830,iAIS,!AIVDM,1,1,,B,16K2HMh000aKV<HCM?kb=nKT0<1S,0*14
2016/01/01 00:00:49.862,iGPS,$PJRCD,GP,7,311215,1500,A,A,A,A,12,0,10,0,,,8,1,320.0,1,114,*4F
2016/01/01 00:00:49.924,iGPS,$PJRCD,GP,9,A,A,,,,,,,*4D
2016/01/01 00:00:50.096,iAIS,!AIVDM,1,1,,A,B6K2Q8P00:Fm6o4ogQNq99q5WP06,0*4D
2016/01/01 00:00:50.143,iAIS,!AIVDM,1,1,,B,40476d1uw?g0jaGNVPCL4e700@MG,0*0C
